{
"type": "FeatureCollection",
"name": "places",
"features": [
{ "type": "Feature", "properties": { "name": "A Dupla Dos Drinks", "address": null, "phone": null, "website": null, "social": "https://www.facebook.com/118666016658903", "category": "bar", "confidence": 0.63308457711442789 }, "geometry": { "type": "Point", "coordinates": [ -48.4140864, -1.4028207 ] } },
{ "type": "Feature", "properties": { "name": "A Ilha - Pool Bar & Restaurant", "address": "Avenida Bernardo Sayão, 5235", "phone": "+5591989648000", "website": "http://ailhapoolbar.com.br", "social": "https://www.facebook.com/342587616457402", "category": "bar", "confidence": 0.82254078101828965 }, "geometry": { "type": "Point", "coordinates": [ -48.4600675, -1.4759087 ] } },
{ "type": "Feature", "properties": { "name": "ANGRA Restaurante Flutuante", "address": "Rio Maguari (Furo Marina Tubarão) Sentido Rio Benfica", "phone": "+559191986456", "website": null, "social": "https://www.facebook.com/191521017692958", "category": "restaurant", "confidence": 0.63308457711442789 }, "geometry": { "type": "Point", "coordinates": [ -48.5, -1.45 ] } },
{ "type": "Feature", "properties": { "name": "Academia Do Chopp Restô & Pub", "address": "Rua José Marcelino de Oliveira, 374", "phone": "+5591980733348", "website": null, "social": "https://www.facebook.com/272361072869983", "category": "bar", "confidence": 0.63308457711442789 }, "geometry": { "type": "Point", "coordinates": [ -48.373135, -1.366731 ] } },
{ "type": "Feature", "properties": { "name": "All Porao", "address": "Avenida Alcindo Cacela, 656", "phone": "+5591993051252", "website": null, "social": "https://www.facebook.com/100567235132745", "category": "restaurant", "confidence": 0.82254078101828965 }, "geometry": { "type": "Point", "coordinates": [ -48.47864, -1.44224 ] } },
{ "type": "Feature", "properties": { "name": "Allan Soares Conveniência", "address": "Rua Ajax De Oliveira", "phone": "+5591998160135", "website": null, "social": "https://www.facebook.com/439050229766099", "category": "bar", "confidence": 0.63308457711442789 }, "geometry": { "type": "Point", "coordinates": [ -48.45911, -1.3766099 ] } },
{ "type": "Feature", "properties": { "name": "Ambiente Bar", "address": "av: santa maria n698 icui-guajará ", "phone": "+5591989821107", "website": null, "social": "https://www.facebook.com/877509375714304", "category": "bar", "confidence": 0.82254078101828965 }, "geometry": { "type": "Point", "coordinates": [ -48.37801, -1.3551899 ] } },
{ "type": "Feature", "properties": { "name": "Anzol Peixaria", "address": "Avenida Conselheiro Furtado, 1884", "phone": "+5591986031970", "website": null, "social": "https://www.facebook.com/110738314714800", "category": "restaurant", "confidence": 0.82254078101828965 }, "geometry": { "type": "Point", "coordinates": [ -48.48164, -1.45681 ] } },
{ "type": "Feature", "properties": { "name": "Arruda HOTEL Benevides", "address": "Rua da Campestre, 316", "phone": "+559132741496", "website": null, "social": "https://www.facebook.com/100955094638074", "category": "hotel", "confidence": 0.82254078101828965 }, "geometry": { "type": "Point", "coordinates": [ -48.2739893, -1.3637795 ] } },
{ "type": "Feature", "properties": { "name": "Arsenal Das Bebidas", "address": null, "phone": "+5591989967269", "website": null, "social": "https://www.facebook.com/100238228335434", "category": "bar", "confidence": 0.63308457711442789 }, "geometry": { "type": "Point", "coordinates": [ -48.5009389, -1.4712134 ] } },
{ "type": "Feature", "properties": { "name": "Atrium Quinta De Pedras", "address": "Rua Doutor Assis, 834", "phone": "+559131991605", "website": "http://atriumhoteis.com.br/pt/hoteis/atrium-quinta-de-pedras-belem", "social": "https://www.facebook.com/1504713439835995", "category": "hotel", "confidence": 0.82254078101828965 }, "geometry": { "type": "Point", "coordinates": [ -48.5042266, -1.46317 ] } },
{ "type": "Feature", "properties": { "name": "Augusto Hotel", "address": "Vila do Conde - Barcarena - Pará", "phone": "+559181385206", "website": null, "social": "https://www.facebook.com/535118346632093", "category": "hotel", "confidence": 0.82254078101828965 }, "geometry": { "type": "Point", "coordinates": [ -48.7628643, -1.5640437 ] } },
{ "type": "Feature", "properties": { "name": "Avalon - Bar e Hamburgueria", "address": "Rua dos Caripunas, 2885", "phone": null, "website": null, "social": "https://www.facebook.com/104877464312474", "category": "bar", "confidence": 0.63308457711442789 }, "geometry": { "type": "Point", "coordinates": [ -48.4780136, -1.4604078 ] } },
{ "type": "Feature", "properties": { "name": "Aviú do Parque", "address": "Travessa Quintino Bocaiúva, 441", "phone": "+559121211747", "website": "https://www.instagram.com/aviurestaurante/", "social": "https://www.facebook.com/1980683618848882", "category": "bar", "confidence": 0.82254078101828965 }, "geometry": { "type": "Point", "coordinates": [ -48.49221, -1.44477 ] } },
{ "type": "Feature", "properties": { "name": "Açai da Hora Belém", "address": "Rodovia Augusto Montenegro, 6650", "phone": "+5591980176204", "website": "http://www.instagram.com/acaidahorabelem", "social": "https://www.facebook.com/749929875363950", "category": "restaurant", "confidence": 0.82254078101828965 }, "geometry": { "type": "Point", "coordinates": [ -48.4530491, -1.3527162 ] } },
{ "type": "Feature", "properties": { "name": "AçaÍze", "address": "Avenida Conselheiro Furtado, 3094", "phone": "+559133522070", "website": null, "social": "https://www.facebook.com/103365748427568", "category": "restaurant", "confidence": 0.63308457711442789 }, "geometry": { "type": "Point", "coordinates": [ -48.4707336, -1.4562505 ] } },
{ "type": "Feature", "properties": { "name": "Açaí Mania Belém", "address": "Av. 25 de Setembro n° 12 próximo ao sup. Formosa", "phone": "+559132268764", "website": "http://www.acaimania.com.br/", "social": "https://www.facebook.com/430593277041316", "category": "restaurant", "confidence": 0.63308457711442789 }, "geometry": { "type": "Point", "coordinates": [ -48.4692162, -1.4462675 ] } },
{ "type": "Feature", "properties": { "name": "Açaí e Restaurante Delícia & Sabor", "address": "Avenida Visconde de Maracajú, 805", "phone": "+5591988760111", "website": null, "social": "https://www.facebook.com/106141115054938", "category": "restaurant", "confidence": 0.63308457711442789 }, "geometry": { "type": "Point", "coordinates": [ -48.2533, -1.35532 ] } },
{ "type": "Feature", "properties": { "name": "Açaí e Restô Imperial", "address": "Passagem Getúlio Vargas, 17B", "phone": "+5591981453230", "website": null, "social": "https://www.facebook.com/127833524604062", "category": "restaurant", "confidence": 0.82254078101828965 }, "geometry": { "type": "Point", "coordinates": [ -48.45154, -1.41449 ] } },
{ "type": "Feature", "properties": { "name": "Açaí quero mais", "address": "Aberto todos os dias  das uD83DuDD5B 11h  às  15 hs   uD83DuDCCD Rua Cláudio Barbosa da Silva  N° 120 c", "phone": "+5591985697635", "website": null, "social": "https://www.facebook.com/412234112695646", "category": "restaurant", "confidence": 0.82254078101828965 }, "geometry": { "type": "Point", "coordinates": [ -48.3345321, -1.3668116 ] } },
{ "type": "Feature", "properties": { "name": "BAR Do Grafite.", "address": "rua Mucajás n.80-conj. Carmelândia.", "phone": "+5591993906018", "website": null, "social": "https://www.facebook.com/597744153676137", "category": "bar", "confidence": 0.63308457711442789 }, "geometry": { "type": "Point", "coordinates": [ -48.4357019, -1.3821675 ] } },
{ "type": "Feature", "properties": { "name": "BAR Do XICÓ", "address": "Passagem caraparú", "phone": "+559181922345", "website": null, "social": "https://www.facebook.com/677560365610728", "category": "bar", "confidence": 0.63308457711442789 }, "geometry": { "type": "Point", "coordinates": [ -48.4619329, -1.461703 ] } },
{ "type": "Feature", "properties": { "name": "BAR PITIÚ", "address": "RUA RAIMUNDO GAMA N:1360 ", "phone": "+5591980393282", "website": null, "social": "https://www.facebook.com/1857931834228225", "category": "bar", "confidence": 0.63308457711442789 }, "geometry": { "type": "Point", "coordinates": [ -48.06716, -1.30572 ] } },
{ "type": "Feature", "properties": { "name": "BAR Quintal do Zé", "address": "Avenida Almirante Tamandaré, 401C", "phone": null, "website": null, "social": "https://www.facebook.com/2057433767844436", "category": "bar", "confidence": 0.63308457711442789 }, "geometry": { "type": "Point", "coordinates": [ -48.502008, -1.4604135 ] } },
{ "type": "Feature", "properties": { "name": "BDR - Bar da Residência", "address": "Travessa Três de Maio, 1525", "phone": "+5591992100042", "website": null, "social": "https://www.facebook.com/101609312403235", "category": "bar", "confidence": 0.82254078101828965 }, "geometry": { "type": "Point", "coordinates": [ -48.4738898, -1.453089 ] } },
{ "type": "Feature", "properties": { "name": "Balneario Ideias", "address": "Pa-391", "phone": "+5591984747260", "website": null, "social": "https://www.facebook.com/1949709855287821", "category": "restaurant", "confidence": 0.82254078101828965 }, "geometry": { "type": "Point", "coordinates": [ -48.2505415, -1.2856029 ] } },
{ "type": "Feature", "properties": { "name": "Balneario e Rest Floresta Clube", "address": null, "phone": "+5591991241166", "website": null, "social": "https://www.facebook.com/100788272447989", "category": "restaurant", "confidence": 0.82254078101828965 }, "geometry": { "type": "Point", "coordinates": [ -48.4250308, -1.4539373 ] } },
{ "type": "Feature", "properties": { "name": "Balneário Alvorada", "address": "Avenida Augusto Meira Filho, 35", "phone": "+559192171819", "website": null, "social": "https://www.facebook.com/373015193427484", "category": "restaurant", "confidence": 0.63308457711442789 }, "geometry": { "type": "Point", "coordinates": [ -48.2438449, -1.362655 ] } },
{ "type": "Feature", "properties": { "name": "Balneário Alvorada", "address": "PA-391", "phone": "+5591992503810", "website": null, "social": "https://www.facebook.com/107525963932300", "category": "bar", "confidence": 0.82254078101828965 }, "geometry": { "type": "Point", "coordinates": [ -48.2495284, -1.2872876 ] } },
{ "type": "Feature", "properties": { "name": "Balneário Kachoeirinha", "address": "Travessa Quarta", "phone": null, "website": null, "social": "https://www.facebook.com/103526764976299", "category": "restaurant", "confidence": 0.63308457711442789 }, "geometry": { "type": "Point", "coordinates": [ -48.1236885, -1.1557471 ] } },
{ "type": "Feature", "properties": { "name": "Balneário Pesque e Pague Ouro Branco", "address": "RAMAL GALHO GRANDE, 285", "phone": "+5591983271384", "website": null, "social": "https://www.facebook.com/255660821757550", "category": "restaurant", "confidence": 0.82254078101828965 }, "geometry": { "type": "Point", "coordinates": [ -48.16019, -1.29171 ] } },
{ "type": "Feature", "properties": { "name": "Balneário e Arena do Roberto", "address": "Rua do Caçula, 01 - Pau D'arco", "phone": "+5591996416209", "website": null, "social": "https://www.facebook.com/102698088999770", "category": "bar", "confidence": 0.82254078101828965 }, "geometry": { "type": "Point", "coordinates": [ -48.2782557, -1.244874 ] } },
{ "type": "Feature", "properties": { "name": "Bar & Conveniência Point da Hora", "address": "Estrada do Outeiro", "phone": null, "website": null, "social": "https://www.facebook.com/106021835030615", "category": "bar", "confidence": 0.63308457711442789 }, "geometry": { "type": "Point", "coordinates": [ -48.4594287, -1.2919971 ] } },
{ "type": "Feature", "properties": { "name": "Bar Casal Feliz", "address": "Passagem Cabedelo, 235", "phone": null, "website": null, "social": "https://www.facebook.com/797505447004509", "category": "hotel", "confidence": 0.63308457711442789 }, "geometry": { "type": "Point", "coordinates": [ -48.4759059, -1.4139567 ] } },
{ "type": "Feature", "properties": { "name": "Bar Castanhola", "address": "Conjunto Satélite, WE, 01", "phone": "+559181637559", "website": null, "social": "https://www.facebook.com/275612439244471", "category": "bar", "confidence": 0.63308457711442789 }, "geometry": { "type": "Point", "coordinates": [ -48.4485441, -1.3453816 ] } },
{ "type": "Feature", "properties": { "name": "Bar Chicago", "address": "av. pres. costa e silva", "phone": "+5591991851084", "website": null, "social": "https://www.facebook.com/679191939188641", "category": "bar", "confidence": 0.82254078101828965 }, "geometry": { "type": "Point", "coordinates": [ -48.3008535, -1.3116124 ] } },
{ "type": "Feature", "properties": { "name": "Bar Clube do Rock", "address": "Avenida Marquês de Herval, 1823", "phone": "+5591989481007", "website": null, "social": "https://www.facebook.com/313044283304887", "category": "bar", "confidence": 0.82254078101828965 }, "geometry": { "type": "Point", "coordinates": [ -48.46686, -1.42526 ] } },
{ "type": "Feature", "properties": { "name": "Bar Do Belga", "address": "Avenida Beira-Mar, 14", "phone": "+559132676760", "website": null, "social": "https://www.facebook.com/259594750729493", "category": "bar", "confidence": 0.82254078101828965 }, "geometry": { "type": "Point", "coordinates": [ -48.46868, -1.25699 ] } },
{ "type": "Feature", "properties": { "name": "Bar Do Japonês", "address": "Rua do Ranário, 47", "phone": "+5591992920993", "website": null, "social": "https://www.facebook.com/101844304823830", "category": "bar", "confidence": 0.82254078101828965 }, "geometry": { "type": "Point", "coordinates": [ -48.4683904, -1.3281367 ] } },
{ "type": "Feature", "properties": { "name": "Bar Do Junhão", "address": "Avenida Conselheiro Furtado, 3915", "phone": "+5591984778512", "website": null, "social": "https://www.facebook.com/513419608763347", "category": "bar", "confidence": 0.63308457711442789 }, "geometry": { "type": "Point", "coordinates": [ -48.4637242, -1.4557083 ] } },
{ "type": "Feature", "properties": { "name": "Bar Do Makako", "address": "Avenida JOÃO PAULO II Esquina com passagem Bartolomeu de Gusmão", "phone": "+5591981444202", "website": null, "social": "https://www.facebook.com/112602506102047", "category": "bar", "confidence": 0.82254078101828965 }, "geometry": { "type": "Point", "coordinates": [ -48.4498732, -1.4302005 ] } },
{ "type": "Feature", "properties": { "name": "Bar Do Mineiro", "address": "Avenida Rômulo Maiorana, 452", "phone": "+5591988658489", "website": null, "social": "https://www.facebook.com/100688644811801", "category": "bar", "confidence": 0.82254078101828965 }, "geometry": { "type": "Point", "coordinates": [ -48.4662743, -1.4426792 ] } },
{ "type": "Feature", "properties": { "name": "Bar Do Paxica", "address": "trv: Tambés entre: tupinambás e apinagés", "phone": "+5591996121098", "website": null, "social": "https://www.facebook.com/694241740637854", "category": "bar", "confidence": 0.63308457711442789 }, "geometry": { "type": "Point", "coordinates": [ -48.480249, -1.4719889 ] } },
{ "type": "Feature", "properties": { "name": "Bar Do Rennan", "address": "Rua São Judas Tadeu, 162", "phone": "+5591985113117", "website": null, "social": "https://www.facebook.com/232431083910903", "category": "bar", "confidence": 0.63308457711442789 }, "geometry": { "type": "Point", "coordinates": [ -48.3894499, -1.3807 ] } },
{ "type": "Feature", "properties": { "name": "Bar Do Rubens", "address": "Rua dos Tambés, 403", "phone": "+5591983642719", "website": null, "social": "https://www.facebook.com/333515343761557", "category": "bar", "confidence": 0.82254078101828965 }, "geometry": { "type": "Point", "coordinates": [ -48.4808317, -1.4726332 ] } },
{ "type": "Feature", "properties": { "name": "Bar Dois Irmãos", "address": "Rua Triunvirato, 279", "phone": "+5591980327474", "website": "http://churrasquinho2irmaos.simplesite.com.br", "social": "https://www.facebook.com/1481383405437802", "category": "bar", "confidence": 0.82254078101828965 }, "geometry": { "type": "Point", "coordinates": [ -48.5007687, -1.4631349 ] } },
{ "type": "Feature", "properties": { "name": "Bar E Restaurante Sabores Da Amazônia", "address": "TRAVESSA MONTE ALEGRE ESQUINA COM RUA OSVALDO DE CALDAS BRITO", "phone": "+5591981208792", "website": null, "social": "https://www.facebook.com/1808752012715387", "category": "bar", "confidence": 0.82254078101828965 }, "geometry": { "type": "Point", "coordinates": [ -48.4977937, -1.4667506 ] } },
{ "type": "Feature", "properties": { "name": "Bar Gela Guela", "address": "PA 481 Pioneiro Ao lado da Antiga  Translider.", "phone": "+5591984075783", "website": null, "social": "https://www.facebook.com/1872232236166109", "category": "bar", "confidence": 0.63308457711442789 }, "geometry": { "type": "Point", "coordinates": [ -48.6836325, -1.5303229 ] } },
{ "type": "Feature", "properties": { "name": "Bar Karena", "address": "Av. Beira Mar, Praia Do Caripi", "phone": "+5591993157510", "website": null, "social": "https://www.facebook.com/100277131650046", "category": "bar", "confidence": 0.82254078101828965 }, "geometry": { "type": "Point", "coordinates": [ -48.7050533, -1.4920622 ] } },
{ "type": "Feature", "properties": { "name": "Bar Mistura Fina", "address": "Conjunto Stelio Maroja SN 2 ESQUINA COM WE 4", "phone": "+5591989590597", "website": null, "social": "https://www.facebook.com/639005926254037", "category": "bar", "confidence": 0.82254078101828965 }, "geometry": { "type": "Point", "coordinates": [ -48.37214, -1.366 ] } },
{ "type": "Feature", "properties": { "name": "Bar Municipal", "address": "Rua Municipalidade, 1643", "phone": "+5591984145326", "website": null, "social": "https://www.facebook.com/197728346939909", "category": "bar", "confidence": 0.82254078101828965 }, "geometry": { "type": "Point", "coordinates": [ -48.4886122, -1.4354432 ] } },
{ "type": "Feature", "properties": { "name": "Bar Nosso Recanto", "address": "Rua Siqueira Mendes, 24", "phone": "+5591981669812", "website": null, "social": "https://www.facebook.com/487406168119968", "category": "bar", "confidence": 0.82254078101828965 }, "geometry": { "type": "Point", "coordinates": [ -48.5057501, -1.4578483 ] } },
{ "type": "Feature", "properties": { "name": "Bar Resenha Pub", "address": "Rua da Olaria, 714", "phone": "+5591983763982", "website": null, "social": "https://www.facebook.com/108709664727351", "category": "bar", "confidence": 0.82254078101828965 }, "geometry": { "type": "Point", "coordinates": [ -48.45535, -1.47177 ] } },
{ "type": "Feature", "properties": { "name": "Bar Sabor Paraense", "address": "Travessa We 8 a Cidade Nova I, 31", "phone": null, "website": null, "social": "https://www.facebook.com/242518819282104", "category": "bar", "confidence": 0.63308457711442789 }, "geometry": { "type": "Point", "coordinates": [ -48.4012902, -1.361226 ] } },
{ "type": "Feature", "properties": { "name": "Bar Salvador", "address": "Travessa dos Apinagés, 541", "phone": "+559132521759", "website": null, "social": "https://www.facebook.com/146278232197057", "category": "bar", "confidence": 0.82254078101828965 }, "geometry": { "type": "Point", "coordinates": [ -48.4889723, -1.4635622 ] } },
{ "type": "Feature", "properties": { "name": "Bar Sol e Mar - Praia do Guajarino", "address": "rodovia transtrambioca", "phone": "+5591993000217", "website": null, "social": "https://www.facebook.com/2040655956160049", "category": "bar", "confidence": 0.82254078101828965 }, "geometry": { "type": "Point", "coordinates": [ -48.6831818, -1.4330627 ] } },
{ "type": "Feature", "properties": { "name": "Bar Suíço", "address": "Travessa Lomas Valentinas, 1988", "phone": "+19132280668", "website": null, "social": "https://www.facebook.com/196541643708459", "category": "bar", "confidence": 0.63308457711442789 }, "geometry": { "type": "Point", "coordinates": [ -48.459056, -1.4314363 ] } },
{ "type": "Feature", "properties": { "name": "Bar The Beatles e Bar The Beatles Yellow Submarine", "address": "Rua Cesário Alvim, 651", "phone": "+5591980915561", "website": "http://www.belemdopara.tur.br", "social": "https://www.facebook.com/178205818928609", "category": "bar", "confidence": 0.82254078101828965 }, "geometry": { "type": "Point", "coordinates": [ -48.498513, -1.465278 ] } },
{ "type": "Feature", "properties": { "name": "Bar Toca do Leão", "address": "Travessa Monte Alegre, 1501", "phone": "+5521980290191", "website": null, "social": "https://www.facebook.com/410185652735161", "category": "bar", "confidence": 0.63308457711442789 }, "geometry": { "type": "Point", "coordinates": [ -48.49242, -1.47077 ] } },
{ "type": "Feature", "properties": { "name": "Bar da Castanheira", "address": "Tv. Lomas Valentina", "phone": "+5591982750728", "website": null, "social": "https://www.facebook.com/325272524291584", "category": "bar", "confidence": 0.82254078101828965 }, "geometry": { "type": "Point", "coordinates": [ -48.4690239, -1.4246842 ] } },
{ "type": "Feature", "properties": { "name": "Bar da Fiel", "address": "João Paulo entre Chaco e Curuzu", "phone": "+55999191414", "website": null, "social": "https://www.facebook.com/1654667964775307", "category": "bar", "confidence": 0.63308457711442789 }, "geometry": { "type": "Point", "coordinates": [ -48.460699, -1.444933 ] } },
{ "type": "Feature", "properties": { "name": "Bar da Loira", "address": "Avenida Marquês de Herval", "phone": null, "website": null, "social": "https://www.facebook.com/240978819364596", "category": "bar", "confidence": 0.63308457711442789 }, "geometry": { "type": "Point", "coordinates": [ -48.4664542, -1.4254927 ] } },
{ "type": "Feature", "properties": { "name": "Bar da Mary", "address": "Rua Raimundo Barbosa Santana, 271", "phone": "+5532562011", "website": null, "social": "https://www.facebook.com/1495506640776714", "category": "bar", "confidence": 0.63308457711442789 }, "geometry": { "type": "Point", "coordinates": [ -48.3426342, -1.3693072 ] } },
{ "type": "Feature", "properties": { "name": "Bar do Boá", "address": "Furo da paciência", "phone": "+55991190781", "website": null, "social": "https://www.facebook.com/710945712593643", "category": "bar", "confidence": 0.63308457711442789 }, "geometry": { "type": "Point", "coordinates": [ -48.440245, -1.4985956 ] } },
{ "type": "Feature", "properties": { "name": "Bar do Carvalho", "address": "Avenida Vinte e Cinco de Setembro", "phone": null, "website": null, "social": "https://www.facebook.com/103196583211093", "category": "bar", "confidence": 0.63308457711442789 }, "geometry": { "type": "Point", "coordinates": [ -48.4644015, -1.4393826 ] } },
{ "type": "Feature", "properties": { "name": "Bar do Ceara", "address": null, "phone": null, "website": null, "social": "https://www.facebook.com/450448081811787", "category": "bar", "confidence": 0.82254078101828965 }, "geometry": { "type": "Point", "coordinates": [ -48.4632672, -1.4478793 ] } },
{ "type": "Feature", "properties": { "name": "Bar do Ceará da 14", "address": "Travessa Quatorze de Abril, 1605", "phone": "+5591984738388", "website": null, "social": "https://www.facebook.com/616672848684436", "category": "bar", "confidence": 0.82254078101828965 }, "geometry": { "type": "Point", "coordinates": [ -48.47267, -1.45419 ] } },
{ "type": "Feature", "properties": { "name": "Bar do Gugu", "address": "Rua dos Pariquis, 3184", "phone": "+559132696024", "website": null, "social": "https://www.facebook.com/670404516309142", "category": "bar", "confidence": 0.82254078101828965 }, "geometry": { "type": "Point", "coordinates": [ -48.4758003, -1.45924 ] } },
{ "type": "Feature", "properties": { "name": "Bar do Horto", "address": "Passagem do Horto, 48", "phone": "+559132211578", "website": "http://www.dohorto.com.br/", "social": "https://www.facebook.com/289505927743732", "category": "bar", "confidence": 0.82254078101828965 }, "geometry": { "type": "Point", "coordinates": [ -48.4870029, -1.4575631 ] } },
{ "type": "Feature", "properties": { "name": "Bar do Max", "address": "Travessa Barão do Triunfo, 972", "phone": "+5591988979597", "website": null, "social": "https://www.facebook.com/2171949706400487", "category": "bar", "confidence": 0.63308457711442789 }, "geometry": { "type": "Point", "coordinates": [ -48.4757484, -1.4238151 ] } },
{ "type": "Feature", "properties": { "name": "Bar do Pantoja", "address": "Rua São Bento, 530", "phone": "+5591982195432", "website": null, "social": "https://www.facebook.com/113792360311942", "category": "bar", "confidence": 0.63308457711442789 }, "geometry": { "type": "Point", "coordinates": [ -48.46094, -1.37856 ] } },
{ "type": "Feature", "properties": { "name": "Bar do Parque", "address": "Rua Carlos Gomes, 315", "phone": "+559132121846", "website": "http://www.flickr.com/photos/19964008", "social": "https://www.facebook.com/431951013595991", "category": "bar", "confidence": 0.82254078101828965 }, "geometry": { "type": "Point", "coordinates": [ -48.4940857, -1.4531324 ] } },
{ "type": "Feature", "properties": { "name": "Bar do Rock", "address": "Avenida José Bonifácio, 2291", "phone": null, "website": null, "social": "https://www.facebook.com/211993832531596", "category": "bar", "confidence": 0.63308457711442789 }, "geometry": { "type": "Point", "coordinates": [ -48.4684447, -1.4670251 ] } },
{ "type": "Feature", "properties": { "name": "Bar e Depósito do Reinaldo", "address": "Rua Morada dos Ventos, 152", "phone": "+5591982820010", "website": null, "social": "https://www.facebook.com/661495527656219", "category": "bar", "confidence": 0.63308457711442789 }, "geometry": { "type": "Point", "coordinates": [ -48.4342682, -1.3816972 ] } },
{ "type": "Feature", "properties": { "name": "Bar e Restaurante Zero Grau", "address": "Av. Pedro Constantino N°03 centro", "phone": "+5591999624435", "website": null, "social": "https://www.facebook.com/1669148693155059", "category": "restaurant", "confidence": 0.82254078101828965 }, "geometry": { "type": "Point", "coordinates": [ -48.16405, -1.29455 ] } },
{ "type": "Feature", "properties": { "name": "Bar e convêniencia Santos", "address": null, "phone": null, "website": null, "social": "https://www.facebook.com/106189685300976", "category": "bar", "confidence": 0.63308457711442789 }, "geometry": { "type": "Point", "coordinates": [ -48.46794, -1.41092 ] } },
{ "type": "Feature", "properties": { "name": "Bar, Bearia Garage", "address": "Rua Coronel Juvêncio Sarmento, 1256", "phone": "+5591980649214", "website": null, "social": "https://www.facebook.com/125491618031573", "category": "bar", "confidence": 0.63308457711442789 }, "geometry": { "type": "Point", "coordinates": [ -48.48172, -1.30392 ] } },
{ "type": "Feature", "properties": { "name": "Barba de Urso", "address": "Avenida Duque de Caxias, 26", "phone": "+5591984902641", "website": null, "social": "https://www.facebook.com/114464863268602", "category": "bar", "confidence": 0.82254078101828965 }, "geometry": { "type": "Point", "coordinates": [ -48.4689788, -1.4460483 ] } },
{ "type": "Feature", "properties": { "name": "BarcelonaCaripi", "address": null, "phone": "+5591984840373", "website": null, "social": "https://www.facebook.com/102863747940078", "category": "bar", "confidence": 0.82254078101828965 }, "geometry": { "type": "Point", "coordinates": [ -48.7045581, -1.491057 ] } },
{ "type": "Feature", "properties": { "name": "Barraca O toda", "address": "Avenida Beira-Mar, 379", "phone": "+5591999775003", "website": null, "social": "https://www.facebook.com/100686111655379", "category": "bar", "confidence": 0.63308457711442789 }, "geometry": { "type": "Point", "coordinates": [ -48.4305817, -1.1146534 ] } },
{ "type": "Feature", "properties": { "name": "Barraca Point dos Amigos", "address": "PRAIA DO CRUZEIRO, BARRACA 03", "phone": "+559132271032", "website": null, "social": "https://www.facebook.com/111710003989950", "category": "restaurant", "confidence": 0.63308457711442789 }, "geometry": { "type": "Point", "coordinates": [ -48.4857993, -1.2936052 ] } },
{ "type": "Feature", "properties": { "name": "Barraca Rosinha's", "address": "Praia do Marahú", "phone": null, "website": null, "social": "https://www.facebook.com/1297593966999339", "category": "bar", "confidence": 0.82254078101828965 }, "geometry": { "type": "Point", "coordinates": [ -48.4016999, -1.0738705 ] } },
{ "type": "Feature", "properties": { "name": "Barraca TONY Lanche Mosqueiro", "address": "Avenida Beira-Mar", "phone": "+559189050617", "website": null, "social": "https://www.facebook.com/462029044342348", "category": "restaurant", "confidence": 0.82254078101828965 }, "geometry": { "type": "Point", "coordinates": [ -48.455041, -1.131617 ] } },
{ "type": "Feature", "properties": { "name": "Barraca da Vovó", "address": "Praia do Bispo", "phone": null, "website": null, "social": "https://www.facebook.com/440679372695918", "category": "bar", "confidence": 0.82254078101828965 }, "geometry": { "type": "Point", "coordinates": [ -48.4710482, -1.1592692 ] } },
{ "type": "Feature", "properties": { "name": "BarracadoGringo", "address": "BARRACADOGRINGO PRAIA DO PARAÍSO MOSQUEIRO ", "phone": "+55981819960", "website": "http://www.barracadogringo.com", "social": "https://www.facebook.com/186988722219429", "category": "bar", "confidence": 0.82254078101828965 }, "geometry": { "type": "Point", "coordinates": [ -48.3861173, -1.0672429 ] } },
{ "type": "Feature", "properties": { "name": "Beiju Xica Belém", "address": "Avenida Comandante Brás de Aguiar, 139", "phone": null, "website": "https://nuv.link/beijuxica", "social": "https://www.facebook.com/101480036047543", "category": "restaurant", "confidence": 0.82254078101828965 }, "geometry": { "type": "Point", "coordinates": [ -48.49059, -1.45508 ] } },
{ "type": "Feature", "properties": { "name": "Beira Rio Hotel", "address": "Avenida Bernardo Sayão, 4804", "phone": "+559140089000", "website": "http://www.beirariohotel.com.br", "social": "https://www.facebook.com/503136889750048", "category": "hotel", "confidence": 0.82254078101828965 }, "geometry": { "type": "Point", "coordinates": [ -48.46449, -1.47576 ] } },
{ "type": "Feature", "properties": { "name": "Belém Hostel", "address": "Rua Ó de Almeida, 624", "phone": "+5591982132800", "website": "http://www.belemhostel.com.br/", "social": "https://www.facebook.com/300347803494446", "category": "hostel", "confidence": 0.82254078101828965 }, "geometry": { "type": "Point", "coordinates": [ -48.4953106, -1.4501229 ] } },
{ "type": "Feature", "properties": { "name": "Belém Soft Hotel", "address": "Avenida Braz de Aguiar, 612", "phone": "+559133233400", "website": "http://www.belemsofthotel.com.br", "social": "https://www.facebook.com/185201694851125", "category": "hotel", "confidence": 0.82254078101828965 }, "geometry": { "type": "Point", "coordinates": [ -48.486206, -1.45482 ] } },
{ "type": "Feature", "properties": { "name": "Benevides-Pa", "address": null, "phone": null, "website": null, "social": "https://www.facebook.com/312819475478861", "category": "bar", "confidence": 0.63308457711442789 }, "geometry": { "type": "Point", "coordinates": [ -48.2530685, -1.3584062 ] } },
{ "type": "Feature", "properties": { "name": "Beto Salomão", "address": "Travessa Doutor Moraes, 581", "phone": "+559132247422", "website": null, "social": "https://www.facebook.com/624824344337056", "category": "restaurant", "confidence": 0.63308457711442789 }, "geometry": { "type": "Point", "coordinates": [ -48.488, -1.45797 ] } },
{ "type": "Feature", "properties": { "name": "Big brother bar", "address": "Travessa Haroldo Veloso", "phone": "+5591980749464", "website": null, "social": "https://www.facebook.com/104733041894148", "category": "bar", "confidence": 0.63308457711442789 }, "geometry": { "type": "Point", "coordinates": [ -48.477193, -1.3405696 ] } },
{ "type": "Feature", "properties": { "name": "Bira's Bar", "address": "Travessa 14 de Março, 1032", "phone": "+559132244934", "website": null, "social": "https://www.facebook.com/252119584809007", "category": "bar", "confidence": 0.63308457711442789 }, "geometry": { "type": "Point", "coordinates": [ -48.4806203, -1.4446155 ] } },
{ "type": "Feature", "properties": { "name": "Bistrô Girassol", "address": "Praia do Guajarino", "phone": "+5591981398109", "website": null, "social": "https://www.facebook.com/110058468017615", "category": "restaurant", "confidence": 0.63308457711442789 }, "geometry": { "type": "Point", "coordinates": [ -48.6829888, -1.4330346 ] } },
{ "type": "Feature", "properties": { "name": "Bistrô do Boneco", "address": "Avenida José Bonifácio, 30", "phone": "+5591991619956", "website": "http://www.bistrodoboneco.com.br", "social": "https://www.facebook.com/469193580244171", "category": "restaurant", "confidence": 0.82254078101828965 }, "geometry": { "type": "Point", "coordinates": [ -48.46941, -1.4469 ] } },
{ "type": "Feature", "properties": { "name": "Boate e Motel Locomotiva", "address": "Avenida Pedro Álvares Cabral, 4765", "phone": "+559132332668", "website": "http://www.alocomotiva.com.br", "social": "https://www.facebook.com/298360460977503", "category": "hotel", "confidence": 0.82254078101828965 }, "geometry": { "type": "Point", "coordinates": [ -48.4733178, -1.4124935 ] } },
{ "type": "Feature", "properties": { "name": "Boaz Bar e Restaurante", "address": "Avenida Conselheiro Furtado, 2464", "phone": "+5591999087336", "website": "https://abre.ai/cardapioboaz", "social": "https://www.facebook.com/104767155340952", "category": "restaurant", "confidence": 0.63308457711442789 }, "geometry": { "type": "Point", "coordinates": [ -48.4762478, -1.4565455 ] } },
{ "type": "Feature", "properties": { "name": "Bodega", "address": "Avenida Conselheiro Furtado, 2", "phone": "+5591989210640", "website": null, "social": "https://www.facebook.com/1682906718654557", "category": "bar", "confidence": 0.63308457711442789 }, "geometry": { "type": "Point", "coordinates": [ -48.4952171, -1.4635079 ] } },
{ "type": "Feature", "properties": { "name": "Bosque Sport Bar e Bowling", "address": "Avenida Centenário, 1052", "phone": "+5591999813789", "website": "http://www.bosquesportbar.com.br/", "social": "https://www.facebook.com/116294872191278", "category": "bar", "confidence": 0.82254078101828965 }, "geometry": { "type": "Point", "coordinates": [ -48.466451, -1.390834 ] } },
{ "type": "Feature", "properties": { "name": "Boteco Arsenal", "address": "Travessa Presidente Dutra, 268", "phone": null, "website": null, "social": "https://www.facebook.com/556416607839230", "category": "bar", "confidence": 0.63308457711442789 }, "geometry": { "type": "Point", "coordinates": [ -48.5035336, -1.4628841 ] } },
{ "type": "Feature", "properties": { "name": "Boteco Da Josi", "address": "Passagem Nova, 1", "phone": null, "website": null, "social": "https://www.facebook.com/341478382964429", "category": "bar", "confidence": 0.63308457711442789 }, "geometry": { "type": "Point", "coordinates": [ -48.4830983, -1.4703801 ] } },
{ "type": "Feature", "properties": { "name": "Boteco Do Ariel", "address": "Avenida Martinho Monteiro", "phone": "+5591993403872", "website": null, "social": "https://www.facebook.com/145294142803483", "category": "bar", "confidence": 0.63308457711442789 }, "geometry": { "type": "Point", "coordinates": [ -48.3252764, -1.2776689 ] } },
{ "type": "Feature", "properties": { "name": "Boteco Las Chicas", "address": "Rua Municipalidade, 1754", "phone": "+559121210193", "website": null, "social": "https://www.facebook.com/381295589165955", "category": "bar", "confidence": 0.63308457711442789 }, "geometry": { "type": "Point", "coordinates": [ -48.4880829, -1.4344876 ] } },
{ "type": "Feature", "properties": { "name": "Boteco MEU Garoto Umarizal", "address": "Avenida Senador Lemos, 631", "phone": "+5591981950279", "website": "http://www.cachacameugaroto.com.br", "social": "https://www.facebook.com/125344064742725", "category": "bar", "confidence": 0.63308457711442789 }, "geometry": { "type": "Point", "coordinates": [ -48.46902, -1.41416 ] } },
{ "type": "Feature", "properties": { "name": "Boteco da ilha", "address": "ilha do combu", "phone": "+5591992441945", "website": "https://www.instagram.com/botecodailhacombu/", "social": "https://www.facebook.com/100738401442336", "category": "bar", "confidence": 0.63308457711442789 }, "geometry": { "type": "Point", "coordinates": [ -48.50327, -1.4564299 ] } },
{ "type": "Feature", "properties": { "name": "Boteco do Carmo", "address": "Rua da Maracacuera (Esquina com a Brasília)", "phone": "+5591919816055", "website": null, "social": "https://www.facebook.com/1571833886207549", "category": "bar", "confidence": 0.63308457711442789 }, "geometry": { "type": "Point", "coordinates": [ -48.44452, -1.29862 ] } },
{ "type": "Feature", "properties": { "name": "Boteco do preto", "address": "avenida marquês de Herval n 215n", "phone": "+5591980316974", "website": null, "social": "https://www.facebook.com/103221762241286", "category": "bar", "confidence": 0.63308457711442789 }, "geometry": { "type": "Point", "coordinates": [ -48.4831544, -1.4363887 ] } },
{ "type": "Feature", "properties": { "name": "Botequim Belém", "address": "Avenida Gentil Bittencourt, 1445", "phone": "+55991495885", "website": "http://whats.link/botequimbelem", "social": "https://www.facebook.com/178720798844054", "category": "bar", "confidence": 0.82254078101828965 }, "geometry": { "type": "Point", "coordinates": [ -48.4793457, -1.4548845 ] } },
{ "type": "Feature", "properties": { "name": "Bristol Umarizal Belem", "address": "Travessa Dom Pedro I, 1104", "phone": "+559133496326", "website": "http://www.bristolhoteis.com.br/hotel,umarizal", "social": "https://www.facebook.com/1753456458291627", "category": "hotel", "confidence": 0.82254078101828965 }, "geometry": { "type": "Point", "coordinates": [ -48.483981, -1.439747 ] } },
{ "type": "Feature", "properties": { "name": "Buteko dos Malla's", "address": "Rua Ferreira Pena, 358", "phone": "+5591999884747", "website": null, "social": "https://www.facebook.com/251583148249040", "category": "bar", "confidence": 0.82254078101828965 }, "geometry": { "type": "Point", "coordinates": [ -48.4817863, -1.4383283 ] } },
{ "type": "Feature", "properties": { "name": "Bêra Gastronomia", "address": "Avenida Boulevard Castilho França, 15", "phone": null, "website": "https://linktr.ee/beragastronomia", "social": "https://www.facebook.com/108769168168193", "category": "restaurant", "confidence": 0.82254078101828965 }, "geometry": { "type": "Point", "coordinates": [ -48.4931039, -1.4365448 ] } },
{ "type": "Feature", "properties": { "name": "Búfalo De Prata", "address": "Passagem Guajarán", "phone": "+5591980300802", "website": null, "social": "https://www.facebook.com/105023648976787", "category": "restaurant", "confidence": 0.63308457711442789 }, "geometry": { "type": "Point", "coordinates": [ -48.4834914, -1.3757037 ] } },
{ "type": "Feature", "properties": { "name": "Búzios", "address": null, "phone": null, "website": null, "social": "https://www.facebook.com/286730455127501", "category": "hotel", "confidence": 0.63308457711442789 }, "geometry": { "type": "Point", "coordinates": [ -48.6973721, -1.5203593 ] } },
{ "type": "Feature", "properties": { "name": "CANOA BAR Bistrô", "address": "Travessa Bom Jardim, 82", "phone": "+5591981216780", "website": null, "social": "https://www.facebook.com/104171855095103", "category": "bar", "confidence": 0.63308457711442789 }, "geometry": { "type": "Point", "coordinates": [ -48.5012273, -1.4613571 ] } },
{ "type": "Feature", "properties": { "name": "Cabelo Club Dry Bar", "address": "Avenida Senador Lemos", "phone": null, "website": null, "social": "https://www.facebook.com/2210899849232241", "category": "bar", "confidence": 0.63308457711442789 }, "geometry": { "type": "Point", "coordinates": [ -48.4867866, -1.4352968 ] } },
{ "type": "Feature", "properties": { "name": "Café Portela", "address": "Rua We Cinquenta e Dois, 221", "phone": "+5591981423493", "website": null, "social": "https://www.facebook.com/160154770709824", "category": "bar", "confidence": 0.82254078101828965 }, "geometry": { "type": "Point", "coordinates": [ -48.4110405, -1.3518412 ] } },
{ "type": "Feature", "properties": { "name": "Cantina Italiana", "address": "Travessa Benjamin Constant, 1401", "phone": "+5591998270917", "website": null, "social": "https://www.facebook.com/101339395393631", "category": "restaurant", "confidence": 0.82254078101828965 }, "geometry": { "type": "Point", "coordinates": [ -48.488347, -1.454075 ] } },
{ "type": "Feature", "properties": { "name": "Cantinho Da Loba", "address": "Travessa Nina Ribeiro, 505", "phone": null, "website": null, "social": "https://www.facebook.com/103567431570066", "category": "bar", "confidence": 0.82254078101828965 }, "geometry": { "type": "Point", "coordinates": [ -48.4640023, -1.4526116 ] } },
{ "type": "Feature", "properties": { "name": "Cantinho do ESPINHA", "address": "Travessa Jaime Dias, 218", "phone": "+5591985402188", "website": null, "social": "https://www.facebook.com/100126694943829", "category": "bar", "confidence": 0.63308457711442789 }, "geometry": { "type": "Point", "coordinates": [ -48.6275133, -1.5084052 ] } },
{ "type": "Feature", "properties": { "name": "Careca- DPC", "address": "Rua 2 de Dezembro, 1888", "phone": "+5591985660757", "website": "https://instadelivery.com.br/carecadpc", "social": "https://www.facebook.com/103369575671284", "category": "bar", "confidence": 0.63308457711442789 }, "geometry": { "type": "Point", "coordinates": [ -48.4744988, -1.3040849 ] } },
{ "type": "Feature", "properties": { "name": "Carne de Sol de Picuí - unid ll", "address": "Rodovia Augusto Montenegro, Km4, Marambaia.", "phone": null, "website": "http://unidade2.carnedesolpicuibelem.com.br", "social": "https://www.facebook.com/111328064770552", "category": "restaurant", "confidence": 0.82254078101828965 }, "geometry": { "type": "Point", "coordinates": [ -48.441803, -1.375785 ] } },
{ "type": "Feature", "properties": { "name": "Casa De Praia Mosqueiro", "address": "Av. 16 de Novembro, Praça Do Chapéu Virado, ao Lado do Ed. Russo.", "phone": "+5591981944260", "website": null, "social": "https://www.facebook.com/489825851411785", "category": "hotel", "confidence": 0.82254078101828965 }, "geometry": { "type": "Point", "coordinates": [ -48.4589799, -1.13742 ] } },
{ "type": "Feature", "properties": { "name": "Casa Eti", "address": "Travessa Rui Barbosa, 1200", "phone": "+5591981232562", "website": null, "social": "https://www.facebook.com/266396530753829", "category": "restaurant", "confidence": 0.63308457711442789 }, "geometry": { "type": "Point", "coordinates": [ -48.4871031, -1.4554126 ] } },
{ "type": "Feature", "properties": { "name": "Casa Samaumeira", "address": "Avenida Generalíssimo Deodoro, 1354", "phone": "+559132524337", "website": null, "social": "https://www.facebook.com/219192028097811", "category": "bar", "confidence": 0.63308457711442789 }, "geometry": { "type": "Point", "coordinates": [ -48.4828599, -1.4529818 ] } },
{ "type": "Feature", "properties": { "name": "Casa do Fauno", "address": "Rua Aristides Lobo, 1061", "phone": "+5591987050609", "website": null, "social": "https://www.facebook.com/1708890656029399", "category": "bar", "confidence": 0.82254078101828965 }, "geometry": { "type": "Point", "coordinates": [ -48.4918445, -1.4482815 ] } },
{ "type": "Feature", "properties": { "name": "Casa do Saulo Onze Janelas", "address": "Rua Siqueira mendes, s/n", "phone": null, "website": null, "social": "https://www.facebook.com/103787248687998", "category": "restaurant", "confidence": 0.82254078101828965 }, "geometry": { "type": "Point", "coordinates": [ -48.505739, -1.455257 ] } },
{ "type": "Feature", "properties": { "name": "CasaBlanca Pousada", "address": "Rua Olinto Meira Nº142", "phone": "+559132351184", "website": null, "social": "https://www.facebook.com/2137916349797648", "category": "hotel", "confidence": 0.82254078101828965 }, "geometry": { "type": "Point", "coordinates": [ -48.42292, -1.4060999 ] } },
{ "type": "Feature", "properties": { "name": "Central guindastes brasil", "address": "Av Dom Rumaldo Coelho QD 375 LT18- Ao lado do Lisboa", "phone": "+5591983515000", "website": null, "social": "https://www.facebook.com/443577613072479", "category": "hotel", "confidence": 0.82254078101828965 }, "geometry": { "type": "Point", "coordinates": [ -48.6848387, -1.5283667 ] } },
{ "type": "Feature", "properties": { "name": "Chaplin Birosk", "address": "Rua da Marina, esquina da Oriximiná -Marambaia ", "phone": "+559132313182", "website": null, "social": "https://www.facebook.com/143522932928256", "category": "hotel", "confidence": 0.82254078101828965 }, "geometry": { "type": "Point", "coordinates": [ -48.4603894, -1.3951963 ] } },
{ "type": "Feature", "properties": { "name": "Churrascaria Costa Nua", "address": "Avenida João Paulo II, 400", "phone": "+5591981369451", "website": "http://www.churrascariadoosmar.com.br", "social": "https://www.facebook.com/1598772883551544", "category": "bar", "confidence": 0.63308457711442789 }, "geometry": { "type": "Point", "coordinates": [ -48.4604742, -1.4443809 ] } },
{ "type": "Feature", "properties": { "name": "Chácara Nossa Senhora de Nazaré", "address": "Rua Expedito Leão, nº 150, Pau d'Arco", "phone": "+5591999431192", "website": null, "social": "https://www.facebook.com/121163048528128", "category": "hotel", "confidence": 0.82254078101828965 }, "geometry": { "type": "Point", "coordinates": [ -48.29266, -1.22664 ] } },
{ "type": "Feature", "properties": { "name": "Club Albatroz", "address": "Vila Naval do Marex", "phone": null, "website": null, "social": "https://www.facebook.com/1389386031289704", "category": "bar", "confidence": 0.63308457711442789 }, "geometry": { "type": "Point", "coordinates": [ -48.469706, -1.393375 ] } },
{ "type": "Feature", "properties": { "name": "Clube da Matilha", "address": "Tv. Angustura, 2218. (Entre Visconde e Marquês de Herval)", "phone": "+5591985272218", "website": "http://bit.ly/2mi7zri", "social": "https://www.facebook.com/1770666042956217", "category": "hotel", "confidence": 0.82254078101828965 }, "geometry": { "type": "Point", "coordinates": [ -48.4642593, -1.4223671 ] } },
{ "type": "Feature", "properties": { "name": "Clube do Espeto - Icoaraci", "address": "Rua Coronel Juvêncio Sarmento, 1079", "phone": "+5532274523", "website": null, "social": "https://www.facebook.com/1916337751918540", "category": "bar", "confidence": 0.82254078101828965 }, "geometry": { "type": "Point", "coordinates": [ -48.481205, -1.302266 ] } },
{ "type": "Feature", "properties": { "name": "Clubinho", "address": "Rua-José Marcelino de Oliveira N°50 ao lado do Condomínio Saint Louis ", "phone": "+5591981714975", "website": null, "social": "https://www.facebook.com/234851413832838", "category": "bar", "confidence": 0.63308457711442789 }, "geometry": { "type": "Point", "coordinates": [ -48.36564, -1.34216 ] } },
{ "type": "Feature", "properties": { "name": "Coco Bambu Belém", "address": "Shopping Center Bosque Grão-Pará", "phone": null, "website": "https://qr.cocobambu.com/belem", "social": "https://www.facebook.com/102725638969796", "category": "restaurant", "confidence": 0.82254078101828965 }, "geometry": { "type": "Point", "coordinates": [ -48.4668615, -1.3909177 ] } },
{ "type": "Feature", "properties": { "name": "Colher de Pau", "address": "Rodovia BR-316", "phone": "+5591984175023", "website": null, "social": "https://www.facebook.com/1338190502905683", "category": "restaurant", "confidence": 0.82254078101828965 }, "geometry": { "type": "Point", "coordinates": [ -48.275071, -1.364048 ] } },
{ "type": "Feature", "properties": { "name": "Colibri Baby Hotel", "address": "Avenida Conselheiro Furtado, 467", "phone": "+559133434315", "website": "http://www.colibribaby.com.br", "social": "https://www.facebook.com/139170552929007", "category": "hotel", "confidence": 0.82254078101828965 }, "geometry": { "type": "Point", "coordinates": [ -48.4925254, -1.4607926 ] } },
{ "type": "Feature", "properties": { "name": "Comercial Neves", "address": "Travessa Alferes Costa, 1690", "phone": "+5591989334392", "website": null, "social": "https://www.facebook.com/108611853966332", "category": "bar", "confidence": 0.63308457711442789 }, "geometry": { "type": "Point", "coordinates": [ -48.4651992, -1.4201691 ] } },
{ "type": "Feature", "properties": { "name": "Comercial Paturi", "address": "TRAV. Jaime Dias ", "phone": "+559193355710", "website": null, "social": "https://www.facebook.com/1413654532257184", "category": "bar", "confidence": 0.63308457711442789 }, "geometry": { "type": "Point", "coordinates": [ -48.6196389, -1.5142057 ] } },
{ "type": "Feature", "properties": { "name": "Confraria do Fraga", "address": "Travessa 9 de Janeiro, 1683", "phone": "+5591988376517", "website": null, "social": "https://www.facebook.com/1884366121893123", "category": "bar", "confidence": 0.82254078101828965 }, "geometry": { "type": "Point", "coordinates": [ -48.4754992, -1.4546417 ] } },
{ "type": "Feature", "properties": { "name": "Confraria-Recreio", "address": "Ave Pedro constantino", "phone": "+5591984853866", "website": "https://app.menudino.com/confrariarecreio", "social": "https://www.facebook.com/109896190873918", "category": "restaurant", "confidence": 0.82254078101828965 }, "geometry": { "type": "Point", "coordinates": [ -48.1640211, -1.293769 ] } },
{ "type": "Feature", "properties": { "name": "Conjunto Val De Cans", "address": null, "phone": "+559132980696", "website": "http://www.hotelvaldecans.com.br/", "social": "https://www.facebook.com/985536398136884", "category": "hotel", "confidence": 0.63308457711442789 }, "geometry": { "type": "Point", "coordinates": [ -48.4771417, -1.4021709 ] } },
{ "type": "Feature", "properties": { "name": "Conveniência Auto Posto Conselheiro", "address": "Avenida Conselheiro Furtado, 2398", "phone": "+5591982336895", "website": null, "social": "https://www.facebook.com/114241620229653", "category": "bar", "confidence": 0.82254078101828965 }, "geometry": { "type": "Point", "coordinates": [ -48.4601986, -1.4555763 ] } },
{ "type": "Feature", "properties": { "name": "Conveniência Gustachopp", "address": "Conjunto Tenone II, Parque Verde, 4", "phone": "+5591981058595", "website": null, "social": "https://www.facebook.com/100195528421168", "category": "bar", "confidence": 0.63308457711442789 }, "geometry": { "type": "Point", "coordinates": [ -48.4355986, -1.3275747 ] } },
{ "type": "Feature", "properties": { "name": "Conveniência Monteiro", "address": "Estrada Icuí Guajará, 20", "phone": "+5591982992084", "website": null, "social": "https://www.facebook.com/101710291758873", "category": "bar", "confidence": 0.63308457711442789 }, "geometry": { "type": "Point", "coordinates": [ -48.41812, -1.34041 ] } },
{ "type": "Feature", "properties": { "name": "Conveniência do M10", "address": "Avenida Centenário, 1323", "phone": "+559184706677", "website": null, "social": "https://www.facebook.com/104145938010174", "category": "bar", "confidence": 0.63308457711442789 }, "geometry": { "type": "Point", "coordinates": [ -48.4454062, -1.3767689 ] } },
{ "type": "Feature", "properties": { "name": "Coqueirão - Society, Bar & Lava jato", "address": "Avenida Hélio Gueiros, 40", "phone": "+5591985753670", "website": null, "social": "https://www.facebook.com/368072513916708", "category": "bar", "confidence": 0.82254078101828965 }, "geometry": { "type": "Point", "coordinates": [ -48.4189555, -1.3556435 ] } },
{ "type": "Feature", "properties": { "name": "Cosmos Club", "address": "Rua Oliveira Belo, 67", "phone": null, "website": null, "social": "https://www.facebook.com/100101792679156", "category": "bar", "confidence": 0.82254078101828965 }, "geometry": { "type": "Point", "coordinates": [ -48.48362, -1.44166 ] } },
{ "type": "Feature", "properties": { "name": "Costa del Sol Resort", "address": "Rua Paraiso, 300", "phone": "+5532147800", "website": "http://www.costadelsolresort.com.br/", "social": "https://www.facebook.com/1589797081294479", "category": "hotel", "confidence": 0.82254078101828965 }, "geometry": { "type": "Point", "coordinates": [ -48.4710395, -1.3456376 ] } },
{ "type": "Feature", "properties": { "name": "Cotijuba Trilha Dourada", "address": "Praia Vai Quem Quer - Cotijuba", "phone": null, "website": null, "social": "https://www.facebook.com/106896274132983", "category": "bar", "confidence": 0.82254078101828965 }, "geometry": { "type": "Point", "coordinates": [ -48.5517381, -1.2211861 ] } },
{ "type": "Feature", "properties": { "name": "Cotton Club", "address": "Rua Padre Júlio Maria, 717", "phone": "+5591984141993", "website": null, "social": "https://www.facebook.com/1010493625748715", "category": "bar", "confidence": 0.82254078101828965 }, "geometry": { "type": "Point", "coordinates": [ -48.48568, -1.29848 ] } },
{ "type": "Feature", "properties": { "name": "Crowne Plaza Belem", "address": "Avenida Nazaré, 375", "phone": "+559132022000", "website": "http://www.crowneplaza.com/redirect?brandcode=cp&regioncode=1&path=hd&localecode=en&hotelcode=bprhi", "social": "https://www.facebook.com/195749507120637", "category": "hotel", "confidence": 0.63308457711442789 }, "geometry": { "type": "Point", "coordinates": [ -48.489394, -1.452769 ] } },
{ "type": "Feature", "properties": { "name": "Depositoldj@email.com", "address": "Passagem Maguari, 138", "phone": "+5591983977550", "website": null, "social": "https://www.facebook.com/101353754872206", "category": "bar", "confidence": 0.63308457711442789 }, "geometry": { "type": "Point", "coordinates": [ -48.47791, -1.2934 ] } },
{ "type": "Feature", "properties": { "name": "Depósito de Bebidas Cervejão do Alexandrão", "address": "Rua We Vinte e Cinco, 8", "phone": "+19132739541", "website": null, "social": "https://www.facebook.com/380272695512642", "category": "bar", "confidence": 0.63308457711442789 }, "geometry": { "type": "Point", "coordinates": [ -48.3966426, -1.3639451 ] } },
{ "type": "Feature", "properties": { "name": "Depósito de Bebidas Jr", "address": "Rua We Oitenta, 422", "phone": "+5591981480378", "website": null, "social": "https://www.facebook.com/104280337930436", "category": "bar", "confidence": 0.63308457711442789 }, "geometry": { "type": "Point", "coordinates": [ -48.40158, -1.3472 ] } },
{ "type": "Feature", "properties": { "name": "Depósito de bebidas britto", "address": "Travessa 14 de Março, 319", "phone": "+5591982342971", "website": null, "social": "https://www.facebook.com/101340814847768", "category": "bar", "confidence": 0.82254078101828965 }, "geometry": { "type": "Point", "coordinates": [ -48.4805245, -1.4341449 ] } },
{ "type": "Feature", "properties": { "name": "Depósito do Tom", "address": "Rodovia Arthur Bernardes, 1", "phone": "+5591983344045", "website": null, "social": "https://www.facebook.com/100647025026375", "category": "bar", "confidence": 0.82254078101828965 }, "geometry": { "type": "Point", "coordinates": [ -48.47723, -1.3579 ] } },
{ "type": "Feature", "properties": { "name": "Deusa da Beleza - Spa e Clínica de Estética Marituba/PA", "address": "Rua do Fio, 11", "phone": "+5591981042819", "website": null, "social": "https://www.facebook.com/322644438151971", "category": "bar", "confidence": 0.63308457711442789 }, "geometry": { "type": "Point", "coordinates": [ -48.34083, -1.36213 ] } },
{ "type": "Feature", "properties": { "name": "Do Pará Bar Restaurante e Bilhar", "address": "Avenida Senador Lemos, 102", "phone": "+559132248762", "website": null, "social": "https://www.facebook.com/1974691962757883", "category": "bar", "confidence": 0.82254078101828965 }, "geometry": { "type": "Point", "coordinates": [ -48.4900045, -1.4421251 ] } },
{ "type": "Feature", "properties": { "name": "Doce Encontro", "address": "Avenida Nazaré, 210", "phone": "+559132415765", "website": "http://www.doceencontrorecepcoes.com.br", "social": "https://www.facebook.com/219792855170335", "category": "restaurant", "confidence": 0.63308457711442789 }, "geometry": { "type": "Point", "coordinates": [ -48.4908469, -1.4538223 ] } },
{ "type": "Feature", "properties": { "name": "Dois Carlos", "address": "Rua Dois de Maio, 1178", "phone": null, "website": null, "social": "https://www.facebook.com/243063895871699", "category": "bar", "confidence": 0.63308457711442789 }, "geometry": { "type": "Point", "coordinates": [ -48.4742243, -1.4501932 ] } },
{ "type": "Feature", "properties": { "name": "Dona Célia Comidas Típicas", "address": "praça cipriano santos (matriz), box 4", "phone": "+559199141823", "website": null, "social": "https://www.facebook.com/1786421408297757", "category": "restaurant", "confidence": 0.63308457711442789 }, "geometry": { "type": "Point", "coordinates": [ -48.4735787, -1.1642453 ] } },
{ "type": "Feature", "properties": { "name": "Duckbill Cookies & Coffe - Ananindeua/PA", "address": "Estrada da Providência, 357", "phone": null, "website": null, "social": "https://www.facebook.com/119592746994229", "category": "restaurant", "confidence": 0.63308457711442789 }, "geometry": { "type": "Point", "coordinates": [ -48.4105265, -1.3652792 ] } },
{ "type": "Feature", "properties": { "name": "EcoSítio Águas Claras", "address": "Rodovia Augusto Meira Filho km 8-Paricatuba, Benevides", "phone": "+5591984594887", "website": null, "social": "https://www.facebook.com/102176408238304", "category": "bar", "confidence": 0.63308457711442789 }, "geometry": { "type": "Point", "coordinates": [ -48.4492834, -1.4413908 ] } },
{ "type": "Feature", "properties": { "name": "Ecopousada Bacabas", "address": "Estrada da Maravilha", "phone": "+5591992322725", "website": "http://www.ecopousadabacabas.com.br/", "social": "https://www.facebook.com/1068622269985002", "category": "hotel", "confidence": 0.82254078101828965 }, "geometry": { "type": "Point", "coordinates": [ -48.15601, -1.29708 ] } },
{ "type": "Feature", "properties": { "name": "Ecopousada Miriti", "address": "Travessa Padre Prudêncio, 656", "phone": "+5591984448586", "website": "https://api.whatsapp.com/send?phone=5591984448586&text=ecopousada%20miriti", "social": "https://www.facebook.com/168628173256650", "category": "hotel", "confidence": 0.82254078101828965 }, "geometry": { "type": "Point", "coordinates": [ -48.495523, -1.455066 ] } },
{ "type": "Feature", "properties": { "name": "El’Raton", "address": "Travessa Siqueira Mendes, 23", "phone": "+5591984572809", "website": "https://instagram.com/elraton_orlaa?utm_medium=copy_link", "social": "https://www.facebook.com/648168301958355", "category": "bar", "confidence": 0.82254078101828965 }, "geometry": { "type": "Point", "coordinates": [ -48.4734665, -1.1657102 ] } },
{ "type": "Feature", "properties": { "name": "Equinócios", "address": "Av. Cônego Batista Campos, s/n Qd:, 065", "phone": "+559137543888", "website": "http://www.hotelequinocios.com.br", "social": "https://www.facebook.com/150547415025275", "category": "hotel", "confidence": 0.82254078101828965 }, "geometry": { "type": "Point", "coordinates": [ -48.6884392, -1.5289586 ] } },
{ "type": "Feature", "properties": { "name": "Escola Hotel Essencial", "address": "Avenida Senador Lemos, 1072", "phone": null, "website": null, "social": "https://www.facebook.com/206162316246754", "category": "hotel", "confidence": 0.63308457711442789 }, "geometry": { "type": "Point", "coordinates": [ -48.4865757, -1.4342909 ] } },
{ "type": "Feature", "properties": { "name": "Escritório Bar Castelinho", "address": "Rua Domingos Marreiros, 1879", "phone": "+559132261726", "website": null, "social": "https://www.facebook.com/106323116124454", "category": "bar", "confidence": 0.63308457711442789 }, "geometry": { "type": "Point", "coordinates": [ -48.4709603, -1.4438416 ] } },
{ "type": "Feature", "properties": { "name": "Espaço Arena Caratateua", "address": "Rua são jerônimo, Outeiro", "phone": "+5591993661169", "website": "https://www.instagram.com/invites/contact/?i=klj3tnfvb2pe&utm_content=mv34pte", "social": "https://www.facebook.com/100539835744669", "category": "bar", "confidence": 0.63308457711442789 }, "geometry": { "type": "Point", "coordinates": [ -48.4617689, -1.2609817 ] } },
{ "type": "Feature", "properties": { "name": "Espaço Herbalife Nutrition - Henrique e Raquel", "address": "Travessa We 54, 281", "phone": "+5591980811213", "website": null, "social": "https://www.facebook.com/639833736141266", "category": "restaurant", "confidence": 0.82254078101828965 }, "geometry": { "type": "Point", "coordinates": [ -48.3956149, -1.3592349 ] } },
{ "type": "Feature", "properties": { "name": "Espaço Herbalife Nutrition José Bonifácio", "address": "Travessa Francisco Caldeira Castelo Branco, n1082-entre Magalhães Barata e Gentil", "phone": "+5591982079616", "website": "https://www.instagram.com/evsjosebonifacio/?hl=pt-br", "social": "https://www.facebook.com/100451678455483", "category": "restaurant", "confidence": 0.82254078101828965 }, "geometry": { "type": "Point", "coordinates": [ -48.4689197, -1.4501692 ] } },
{ "type": "Feature", "properties": { "name": "Espaço7Dois", "address": null, "phone": "+5591983367294", "website": null, "social": "https://www.facebook.com/487681501602175", "category": "restaurant", "confidence": 0.82254078101828965 }, "geometry": { "type": "Point", "coordinates": [ -48.4616525, -1.4484991 ] } },
{ "type": "Feature", "properties": { "name": "Espetinho Mix", "address": "Travessa Coronel José Mota, 14", "phone": "+5591980931452", "website": null, "social": "https://www.facebook.com/158847258085436", "category": "restaurant", "confidence": 0.63308457711442789 }, "geometry": { "type": "Point", "coordinates": [ -48.468944, -1.1589012 ] } },
{ "type": "Feature", "properties": { "name": "Eternu's Motel", "address": "Travessa Vilela, 1452", "phone": "+19132360771", "website": "http://www.eternus.com.br", "social": "https://www.facebook.com/131165276952562", "category": "hotel", "confidence": 0.63308457711442789 }, "geometry": { "type": "Point", "coordinates": [ -48.47074, -1.434535 ] } },
{ "type": "Feature", "properties": { "name": "Extremos Burguer Delivery", "address": "Rua Osvaldo Cruz", "phone": "+5591985660184", "website": null, "social": "https://www.facebook.com/102608775821986", "category": "restaurant", "confidence": 0.63308457711442789 }, "geometry": { "type": "Point", "coordinates": [ -48.3983799, -1.4181043 ] } },
{ "type": "Feature", "properties": { "name": "F1 Lava Jato", "address": "Rua Domingos Marreiros, 1448", "phone": "+559132360248", "website": null, "social": "https://www.facebook.com/142747715795315", "category": "bar", "confidence": 0.82254078101828965 }, "geometry": { "type": "Point", "coordinates": [ -48.474871, -1.4441692 ] } },
{ "type": "Feature", "properties": { "name": "Fit Motel", "address": "Avenida Engenheiro Fernando Guilhon, 654", "phone": "+559133668989", "website": "http://www.fitmotel.com.br", "social": "https://www.facebook.com/215241608631240", "category": "hotel", "confidence": 0.82254078101828965 }, "geometry": { "type": "Point", "coordinates": [ -48.4941134, -1.4756488 ] } },
{ "type": "Feature", "properties": { "name": "Frango Do Jow", "address": "Travessa Benjamin Constant, 1166", "phone": "+5591985487098", "website": null, "social": "https://www.facebook.com/236089180215184", "category": "restaurant", "confidence": 0.63308457711442789 }, "geometry": { "type": "Point", "coordinates": [ -48.1616275, -1.2963383 ] } },
{ "type": "Feature", "properties": { "name": "Frangão Da José Bonifacio", "address": "Avenida Bernardo Sayão, 4395", "phone": "+5591989188334", "website": null, "social": "https://www.facebook.com/112833566816969", "category": "restaurant", "confidence": 0.82254078101828965 }, "geometry": { "type": "Point", "coordinates": [ -48.46888, -1.47072 ] } },
{ "type": "Feature", "properties": { "name": "G1 Hotel", "address": "Rodovia Augusto Montenegro, 118", "phone": "+559132314002", "website": "http://www.g1hotel.com.br", "social": "https://www.facebook.com/211630348866563", "category": "hotel", "confidence": 0.82254078101828965 }, "geometry": { "type": "Point", "coordinates": [ -48.4345207, -1.4023339 ] } },
{ "type": "Feature", "properties": { "name": "GM Restaurant", "address": "malikpur chownk,chhoti nehar, opposite juridical court ", "phone": "+919915688392", "website": null, "social": "https://www.facebook.com/103415252295890", "category": "restaurant", "confidence": 0.63308457711442789 }, "geometry": { "type": "Point", "coordinates": [ -48.4568914, -1.4277543 ] } },
{ "type": "Feature", "properties": { "name": "Gelo Drink Recepções & Eventos", "address": "Rua São Francisco 03", "phone": "+5591984050264", "website": null, "social": "https://www.facebook.com/151823845378736", "category": "bar", "confidence": 0.63308457711442789 }, "geometry": { "type": "Point", "coordinates": [ -48.4254575, -1.3764626 ] } },
{ "type": "Feature", "properties": { "name": "Giraffas", "address": "Rod. BR-316, km. 1", "phone": "", "website": "http://www.giraffas.com.br/", "social": null, "category": "bar", "confidence": 0.77 }, "geometry": { "type": "Point", "coordinates": [ -48.430812, -1.4028989 ] } },
{ "type": "Feature", "properties": { "name": "Go Inn Belem", "address": "Rua Senador Manoel Barata, 532", "phone": "+559133970310", "website": "http://www.goinnbelem.com.br", "social": "https://www.facebook.com/587772164926905", "category": "hotel", "confidence": 0.95918437963420666 }, "geometry": { "type": "Point", "coordinates": [ -48.498739, -1.451963 ] } },
{ "type": "Feature", "properties": { "name": "Gold Martan Hotel", "address": "Rua Professor Nelson Ribeiro, 132", "phone": "+5591983400910", "website": "http://www.hotelgoldmartan.com.br", "social": "https://www.facebook.com/114082522077428", "category": "hotel", "confidence": 0.63308457711442789 }, "geometry": { "type": "Point", "coordinates": [ -48.49212, -1.43156 ] } },
{ "type": "Feature", "properties": { "name": "Grand Hostel Belém", "address": "Avenida Presidente Vargas, 646", "phone": "+5591981466580", "website": "http://www.grandhostelbelem.com", "social": "https://www.facebook.com/349015475512968", "category": "hostel", "confidence": 0.63308457711442789 }, "geometry": { "type": "Point", "coordinates": [ -48.49588, -1.4525999 ] } },
{ "type": "Feature", "properties": { "name": "Green Médice Park Resort Hotel Marina Club Number One", "address": null, "phone": null, "website": null, "social": "https://www.facebook.com/276944775722820", "category": "hotel", "confidence": 0.63308457711442789 }, "geometry": { "type": "Point", "coordinates": [ -48.4565011, -1.3990303 ] } },
{ "type": "Feature", "properties": { "name": "Guryjubar", "address": "Rua Mariano, 123", "phone": null, "website": null, "social": "https://www.facebook.com/105224865422164", "category": "restaurant", "confidence": 0.63308457711442789 }, "geometry": { "type": "Point", "coordinates": [ -48.43226, -1.41061 ] } },
{ "type": "Feature", "properties": { "name": "HOTEL Grão-Para", "address": "Avenida Presidente Vargas, 718", "phone": "+559133212121", "website": "http://www.hotelgraopara.com.br", "social": "https://www.facebook.com/336608416477453", "category": "hotel", "confidence": 0.82254078101828965 }, "geometry": { "type": "Point", "coordinates": [ -48.4953789, -1.4528883 ] } },
{ "type": "Feature", "properties": { "name": "HOTEL RUBI", "address": "Tv. Crispim dos Santos Qd 326 Lt02", "phone": "+5591993916335", "website": null, "social": "https://www.facebook.com/463623307713396", "category": "hotel", "confidence": 0.82254078101828965 }, "geometry": { "type": "Point", "coordinates": [ -48.6938214, -1.5164325 ] } },
{ "type": "Feature", "properties": { "name": "Hakata Belém", "address": "Travessa Quatorze de Abril, 1128", "phone": "+559132411469", "website": null, "social": "https://www.facebook.com/1807475672797544", "category": "restaurant", "confidence": 0.63308457711442789 }, "geometry": { "type": "Point", "coordinates": [ -48.4719816, -1.464213 ] } },
{ "type": "Feature", "properties": { "name": "Hangar House Hostel", "address": "Avenida Duque de Caxias, 1384", "phone": "+5591985403441", "website": null, "social": "https://www.facebook.com/2178239932442800", "category": "hostel", "confidence": 0.82254078101828965 }, "geometry": { "type": "Point", "coordinates": [ -48.45935, -1.42665 ] } },
{ "type": "Feature", "properties": { "name": "Hanzo Sushi 122", "address": null, "phone": null, "website": "http://pedidosup.com.br/hanzosushi", "social": "https://www.facebook.com/101279228702841", "category": "restaurant", "confidence": 0.63308457711442789 }, "geometry": { "type": "Point", "coordinates": [ -48.48337, -1.44207 ] } },
{ "type": "Feature", "properties": { "name": "Haraz's Bar E Restaurante", "address": "Travessa Rosa Moreira, 476", "phone": "+5591989176232", "website": null, "social": "https://www.facebook.com/365517074096025", "category": "bar", "confidence": 0.82254078101828965 }, "geometry": { "type": "Point", "coordinates": [ -48.4846198, -1.4272618 ] } },
{ "type": "Feature", "properties": { "name": "Havan Ananindeua", "address": "Rod. Br 316, Km 8 - Levilândia, Pa.", "phone": null, "website": null, "social": "https://www.facebook.com/103443901610971", "category": "hotel", "confidence": 0.63308457711442789 }, "geometry": { "type": "Point", "coordinates": [ -48.3823443, -1.3705667 ] } },
{ "type": "Feature", "properties": { "name": "Hilton Belem", "address": "Av. Pres. Vargas 882", "phone": "9140067000", "website": "http://www3.hilton.com/en/hotels/par/hilton-belem-BELHIHH/index.html?WT.mc_id=zMKWADM0AA1HH2OLG3Bing4BingPlaces5BELHIHH7BR", "social": null, "category": "hotel", "confidence": 0.89329527763362737 }, "geometry": { "type": "Point", "coordinates": [ -48.4943084, -1.4535511 ] } },
{ "type": "Feature", "properties": { "name": "Holiday Inn Express Belém Ananindeua", "address": "Rod. BR-316 S/N, km. 01 (Guanabara)", "phone": "9133467800", "website": "https://www.ihg.com/holidayinnexpress/hotels/us/en/belem/bprex/hoteldetail?cm_mmc=BingMaps-_-EX-_-BR-_-BPREX", "social": null, "category": "hotel", "confidence": 0.77 }, "geometry": { "type": "Point", "coordinates": [ -48.4237779, -1.3979772 ] } },
{ "type": "Feature", "properties": { "name": "Honórios Bar Jardim Sideral", "address": "Rua São PEDRO", "phone": null, "website": null, "social": "https://www.facebook.com/149565528912588", "category": "bar", "confidence": 0.63308457711442789 }, "geometry": { "type": "Point", "coordinates": [ -48.4383248, -1.3561196 ] } },
{ "type": "Feature", "properties": { "name": "Hoppy Pig", "address": "Rua Domingos Marreiros, 446", "phone": "+5591981991935", "website": null, "social": "https://www.facebook.com/1668235663437519", "category": "bar", "confidence": 0.82254078101828965 }, "geometry": { "type": "Point", "coordinates": [ -48.4859418, -1.4469928 ] } },
{ "type": "Feature", "properties": { "name": "Hostel Antonieta", "address": "Avenida Governador José Malcher, 592", "phone": "+5591987272421", "website": null, "social": "https://www.facebook.com/689307751491242", "category": "hostel", "confidence": 0.82254078101828965 }, "geometry": { "type": "Point", "coordinates": [ -48.48803, -1.45177 ] } },
{ "type": "Feature", "properties": { "name": "Hostel BELÉM Jardim Nazaré", "address": "Alameda Lúcio Amaral, 77", "phone": null, "website": null, "social": "https://www.facebook.com/109658674812263", "category": "hostel", "confidence": 0.63308457711442789 }, "geometry": { "type": "Point", "coordinates": [ -48.479644, -1.454303 ] } },
{ "type": "Feature", "properties": { "name": "Hostel Pai D'egua", "address": "Travessa Padre Prudêncio, 688", "phone": "+5591993909287", "website": "http://www.hostelpaidegua.com.br", "social": "https://www.facebook.com/103439204434105", "category": "hostel", "confidence": 0.82254078101828965 }, "geometry": { "type": "Point", "coordinates": [ -48.49537, -1.45502 ] } },
{ "type": "Feature", "properties": { "name": "Hotel & Restaurante Beira Rio", "address": null, "phone": null, "website": "http://hotelbeirari2.wix.com/hotelbeirariobujaru", "social": "https://www.facebook.com/419613081494503", "category": "hotel", "confidence": 0.82254078101828965 }, "geometry": { "type": "Point", "coordinates": [ -48.4646134, -1.4758494 ] } },
{ "type": "Feature", "properties": { "name": "Hotel Akemi", "address": "Avenida Ceará, 81", "phone": "+19132265961", "website": null, "social": "https://www.facebook.com/1450392585198146", "category": "hotel", "confidence": 0.63308457711442789 }, "geometry": { "type": "Point", "coordinates": [ -48.4650526, -1.4477627 ] } },
{ "type": "Feature", "properties": { "name": "Hotel Amazonia- Vila dos cabanos", "address": null, "phone": "+559137540955", "website": "http://www.equinocios.com.br", "social": "https://www.facebook.com/520504414648310", "category": "hotel", "confidence": 0.63308457711442789 }, "geometry": { "type": "Point", "coordinates": [ -48.6939001, -1.5163645 ] } },
{ "type": "Feature", "properties": { "name": "Hotel Antiga Roma", "address": "Rua Manaus, 45", "phone": "+5591984494042", "website": "http://www.hotelantigaroma.com", "social": "https://www.facebook.com/110017824469549", "category": "hotel", "confidence": 0.82254078101828965 }, "geometry": { "type": "Point", "coordinates": [ -48.39664, -1.39224 ] } },
{ "type": "Feature", "properties": { "name": "Hotel Arruda Marituba", "address": null, "phone": "+5591981283078", "website": null, "social": "https://www.facebook.com/100930988779167", "category": "hotel", "confidence": 0.82254078101828965 }, "geometry": { "type": "Point", "coordinates": [ -48.3318489, -1.3653455 ] } },
{ "type": "Feature", "properties": { "name": "Hotel Avalon", "address": "Avenida Professor José Gomes Teles, 90", "phone": "+5591982450015", "website": null, "social": "https://www.facebook.com/1999143060305042", "category": "hotel", "confidence": 0.82254078101828965 }, "geometry": { "type": "Point", "coordinates": [ -48.253664, -1.360556 ] } },
{ "type": "Feature", "properties": { "name": "Hotel Beira Rio", "address": null, "phone": "+19137461137", "website": "http://hotelbeirari2.wix.com/hotelbeirariobujaru", "social": "https://www.facebook.com/321853118598300", "category": "hotel", "confidence": 0.63308457711442789 }, "geometry": { "type": "Point", "coordinates": [ -48.0470832, -1.5190004 ] } },
{ "type": "Feature", "properties": { "name": "Hotel Belém.", "address": "Rua Ó de Almeida, 476", "phone": "+559132255695", "website": "http://www.hotelbelem.com.br", "social": "https://www.facebook.com/209095449160777", "category": "hotel", "confidence": 0.63308457711442789 }, "geometry": { "type": "Point", "coordinates": [ -48.49639, -1.45099 ] } },
{ "type": "Feature", "properties": { "name": "Hotel Cabano", "address": "Av Jerônimo Pimentel Qd 380 lote 09 , vila dos cabanos,  Barcarena, próximo a magnos club e lojas americanas ", "phone": "+5591983206479", "website": null, "social": "https://www.facebook.com/1043085422416024", "category": "hotel", "confidence": 0.82254078101828965 }, "geometry": { "type": "Point", "coordinates": [ -48.697537, -1.520414 ] } },
{ "type": "Feature", "properties": { "name": "Hotel Cacique", "address": "Avenida Francisco Amancio", "phone": null, "website": null, "social": "https://www.facebook.com/101797834988187", "category": "hotel", "confidence": 0.82254078101828965 }, "geometry": { "type": "Point", "coordinates": [ -48.1600655, -1.298112 ] } },
{ "type": "Feature", "properties": { "name": "Hotel Central Belém", "address": "Rua Aristides Lobo, 485", "phone": "+5591993888888", "website": "http://www.booking.com/hotel/br/hostel-central-belem.html", "social": "https://www.facebook.com/447027902323193", "category": "hotel", "confidence": 0.82254078101828965 }, "geometry": { "type": "Point", "coordinates": [ -48.4960839, -1.4510985 ] } },
{ "type": "Feature", "properties": { "name": "Hotel Concentração Do Paysandu", "address": "Estádio Leônidas sodré de Castro (Curuzu)", "phone": null, "website": "http://www.grandplazashopping.com.br/", "social": "https://www.facebook.com/1617376671916761", "category": "hotel", "confidence": 0.63308457711442789 }, "geometry": { "type": "Point", "coordinates": [ -48.462842, -1.4443307 ] } },
{ "type": "Feature", "properties": { "name": "Hotel Concha do Mar Salinas", "address": null, "phone": null, "website": null, "social": "https://www.facebook.com/433448407116971", "category": "hotel", "confidence": 0.63308457711442789 }, "geometry": { "type": "Point", "coordinates": [ -48.43669, -1.39856 ] } },
{ "type": "Feature", "properties": { "name": "Hotel Conde", "address": "Travessa da Matriz, 137", "phone": "+559137531100", "website": null, "social": "https://www.facebook.com/186331694738977", "category": "hotel", "confidence": 0.82254078101828965 }, "geometry": { "type": "Point", "coordinates": [ -48.625393, -1.5053983 ] } },
{ "type": "Feature", "properties": { "name": "Hotel Danubio", "address": "Travessa Primeira de Queluz, 63", "phone": "+542255462328", "website": "http://www.hoteldanubiogesell.com.ar", "social": "https://www.facebook.com/718719871494123", "category": "hotel", "confidence": 0.82254078101828965 }, "geometry": { "type": "Point", "coordinates": [ -48.46507, -1.44884 ] } },
{ "type": "Feature", "properties": { "name": "Hotel Farol - Mosqueiro", "address": "Avenida Princesa Izabel, 3295", "phone": "+559137712095", "website": "http://www.hotelfarol.com.br", "social": "https://www.facebook.com/225539320838865", "category": "hotel", "confidence": 0.82254078101828965 }, "geometry": { "type": "Point", "coordinates": [ -48.466938, -1.134042 ] } },
{ "type": "Feature", "properties": { "name": "Hotel Fazenda Paraiso", "address": "Praia do Paraíso - Beira Mar, 0", "phone": "+559132044666", "website": "http://hotelfazendaparaiso.com.br/", "social": "https://www.facebook.com/281598051852119", "category": "hotel", "confidence": 0.82254078101828965 }, "geometry": { "type": "Point", "coordinates": [ -48.379953, -1.066687 ] } },
{ "type": "Feature", "properties": { "name": "Hotel Fazenda Santa Rosa", "address": "Rodovia PA140 Km 39", "phone": "+559138333000", "website": "http://www.hotelfazendasantarosa.com.br", "social": "https://www.facebook.com/1727862747467052", "category": "hotel", "confidence": 0.63308457711442789 }, "geometry": { "type": "Point", "coordinates": [ -48.471281, -1.417416 ] } },
{ "type": "Feature", "properties": { "name": "Hotel Flor de Lótus", "address": "Rua 7 de Janeiro", "phone": "+5537441763", "website": null, "social": "https://www.facebook.com/1275427199263691", "category": "hotel", "confidence": 0.82254078101828965 }, "geometry": { "type": "Point", "coordinates": [ -48.1554335, -1.2904023 ] } },
{ "type": "Feature", "properties": { "name": "Hotel Fortaleza", "address": "Travessa Frutuoso Guimarães, 276", "phone": "+559132121055", "website": null, "social": "https://www.facebook.com/145887978948665", "category": "hotel", "confidence": 0.63308457711442789 }, "geometry": { "type": "Point", "coordinates": [ -48.4996256, -1.4522123 ] } },
{ "type": "Feature", "properties": { "name": "Hotel Fênixx", "address": "Av. Almirante Barroso n°35 Altos. Bairro São Brás (Próximo ao terminal rodoviário)  ", "phone": "+559132469650", "website": null, "social": "https://www.facebook.com/363165823884201", "category": "hotel", "confidence": 0.63308457711442789 }, "geometry": { "type": "Point", "coordinates": [ -48.4676857, -1.4504018 ] } },
{ "type": "Feature", "properties": { "name": "Hotel Gold Martan", "address": "Rodovia Mário Covas, 91", "phone": "+559121220232", "website": "http://www.hotelgoldmartan.com.br", "social": "https://www.facebook.com/220360335393845", "category": "hotel", "confidence": 0.82254078101828965 }, "geometry": { "type": "Point", "coordinates": [ -48.4281785, -1.3607987 ] } },
{ "type": "Feature", "properties": { "name": "Hotel Hangar", "address": "Travessa Alferes Costa, 2716", "phone": "+559133557372", "website": "http://www.hotelhangar.com.br", "social": "https://www.facebook.com/290301414479581", "category": "hotel", "confidence": 0.82254078101828965 }, "geometry": { "type": "Point", "coordinates": [ -48.457803, -1.42517 ] } },
{ "type": "Feature", "properties": { "name": "Hotel Hilma", "address": "Rodovia BR-316, S/N km 05", "phone": "+19132454231", "website": "http://www.hotelhilma.blogspot.com", "social": "https://www.facebook.com/221531064530916", "category": "hotel", "confidence": 0.63308457711442789 }, "geometry": { "type": "Point", "coordinates": [ -48.4085284, -1.3859216 ] } },
{ "type": "Feature", "properties": { "name": "Hotel Ibis", "address": "Avenida Júlio César, 1675", "phone": "+19133445650", "website": "https://all.accor.com/hotel/5631/index.en.shtml?y_source=1_mtuznja1njctndqwlwxvy2f0aw9ulndlynnpdgu=", "social": "https://www.facebook.com/103569666398661", "category": "hotel", "confidence": 0.95918437963420666 }, "geometry": { "type": "Point", "coordinates": [ -48.4717216, -1.4020267 ] } },
{ "type": "Feature", "properties": { "name": "Hotel Ipê", "address": "Avenida Governador José Malcher, 2953", "phone": "+559132044100", "website": "http://www.hotelipe.com.br", "social": "https://www.facebook.com/167529826638078", "category": "hotel", "confidence": 0.82254078101828965 }, "geometry": { "type": "Point", "coordinates": [ -48.4672694, -1.4481022 ] } },
{ "type": "Feature", "properties": { "name": "Hotel Jardim Tropical", "address": null, "phone": "+5591981991978", "website": "http://www.hoteljardimtropical.com.br", "social": "https://www.facebook.com/1741027219466262", "category": "hotel", "confidence": 0.82254078101828965 }, "geometry": { "type": "Point", "coordinates": [ -48.708773, -1.512355 ] } },
{ "type": "Feature", "properties": { "name": "Hotel Le Massilia", "address": "Rua Henrique Gurjão, 235", "phone": "+5591982821488", "website": "http://www.lemassiliahotel.com.br", "social": "https://www.facebook.com/239365963184575", "category": "hotel", "confidence": 0.82254078101828965 }, "geometry": { "type": "Point", "coordinates": [ -48.49178, -1.45061 ] } },
{ "type": "Feature", "properties": { "name": "Hotel M & K", "address": "Rua Deodoro de Mendonça, 315", "phone": "+559132595116", "website": null, "social": "https://www.facebook.com/202912489749580", "category": "hotel", "confidence": 0.82254078101828965 }, "geometry": { "type": "Point", "coordinates": [ -48.4670975, -1.4514402 ] } },
{ "type": "Feature", "properties": { "name": "Hotel Marajoara Belém", "address": "Passagem Joaquim Nabuco, 59", "phone": "+5591982863569", "website": "http://www.hotelmarajoarabelem.com.br", "social": "https://www.facebook.com/495227843943969", "category": "hotel", "confidence": 0.82254078101828965 }, "geometry": { "type": "Point", "coordinates": [ -48.48387, -1.45106 ] } },
{ "type": "Feature", "properties": { "name": "Hotel Marituba", "address": "Rua da Cerâmica, 1", "phone": "+191983558378", "website": null, "social": "https://www.facebook.com/1092602194125105", "category": "hotel", "confidence": 0.63308457711442789 }, "geometry": { "type": "Point", "coordinates": [ -48.33474, -1.35272 ] } },
{ "type": "Feature", "properties": { "name": "Hotel Miriti", "address": null, "phone": null, "website": null, "social": "https://www.facebook.com/168521723239186", "category": "hotel", "confidence": 0.63308457711442789 }, "geometry": { "type": "Point", "coordinates": [ -48.0470178, -1.5203752 ] } },
{ "type": "Feature", "properties": { "name": "Hotel Murubira seresta", "address": null, "phone": null, "website": null, "social": "https://www.facebook.com/124952657581312", "category": "hotel", "confidence": 0.63308457711442789 }, "geometry": { "type": "Point", "coordinates": [ -48.4417303, -1.1209236 ] } },
{ "type": "Feature", "properties": { "name": "Hotel Novo Avenida", "address": "Avenida Presidente Vargas, 404", "phone": "+559132282500", "website": "http://www.hotelnovoavenida.com.br", "social": "https://www.facebook.com/251984531506423", "category": "hotel", "confidence": 0.82254078101828965 }, "geometry": { "type": "Point", "coordinates": [ -48.49697, -1.450992 ] } },
{ "type": "Feature", "properties": { "name": "Hotel Paraíso", "address": "Travessa Timbó, 3099", "phone": "+5591984267038", "website": "https://www.booking.com/hotel/br/paraiso-belem.pt-br.html?label=gen173bo-1dcasoieincgfyywlzby1izwxlbugzwanoiigbazgbh7gbgmgbdngba-gbaygcazgcbqgcblgcy6hxnqbaaghsairkzdc4mdbizs00yju4ltq0ytktotu1yy1kytywngfhnjazowbyagtgage&sid=7959179321fc7dc3ffb3db320558633c&lang=pt-br&room1=a%2ca&sb_price_type=total&soz=1&type=total&lang_click=other&cdl=pt-pt&lang_changed=1", "social": "https://www.facebook.com/156260017760763", "category": "hotel", "confidence": 0.82254078101828965 }, "geometry": { "type": "Point", "coordinates": [ -48.458651, -1.440448 ] } },
{ "type": "Feature", "properties": { "name": "Hotel Princesa Louçã", "address": "Avenida Presidente Vargas, 882", "phone": "+559140067000", "website": "http://www.princesabelem.com.br/", "social": "https://www.facebook.com/336713516519785", "category": "hotel", "confidence": 0.82254078101828965 }, "geometry": { "type": "Point", "coordinates": [ -48.4943457, -1.453453 ] } },
{ "type": "Feature", "properties": { "name": "Hotel Quinta De Pedras", "address": null, "phone": null, "website": null, "social": "https://www.facebook.com/677702742366343", "category": "hotel", "confidence": 0.63308457711442789 }, "geometry": { "type": "Point", "coordinates": [ -48.5, -1.45 ] } },
{ "type": "Feature", "properties": { "name": "Hotel Raiar do Sol", "address": "Avenida Dom Romualdo Coelho, 380", "phone": "+559137541502", "website": "http://raiardosol5.webnode.com/o-hotel/", "social": "https://www.facebook.com/394541110661997", "category": "hotel", "confidence": 0.63308457711442789 }, "geometry": { "type": "Point", "coordinates": [ -48.6975325, -1.5211017 ] } },
{ "type": "Feature", "properties": { "name": "Hotel Raludi", "address": "Av Francisco Vinagre", "phone": "+5591993761420", "website": "http://www.raludi.com.br", "social": "https://www.facebook.com/125471351126880", "category": "hotel", "confidence": 0.63308457711442789 }, "geometry": { "type": "Point", "coordinates": [ -48.6944172, -1.5115213 ] } },
{ "type": "Feature", "properties": { "name": "Hotel Real Belém", "address": "Travessa Nina Ribeiro, 91", "phone": "+559132280170", "website": null, "social": "https://www.facebook.com/104529260936295", "category": "hotel", "confidence": 0.82254078101828965 }, "geometry": { "type": "Point", "coordinates": [ -48.4643041, -1.4489929 ] } },
{ "type": "Feature", "properties": { "name": "Hotel Riviera d'Amazônia", "address": "Rodovia Mário Covas, 1228", "phone": "+559140069900", "website": "http://www.rivieradamazonia.com.br", "social": "https://www.facebook.com/579159675504881", "category": "hotel", "confidence": 0.82254078101828965 }, "geometry": { "type": "Point", "coordinates": [ -48.4146038, -1.374755 ] } },
{ "type": "Feature", "properties": { "name": "Hotel Sagres", "address": "Avenida Governador José Malcher, 2927", "phone": "+559140050005", "website": "http://www.hotelsagres.com", "social": "https://www.facebook.com/172082009613354", "category": "hotel", "confidence": 0.82254078101828965 }, "geometry": { "type": "Point", "coordinates": [ -48.4676573, -1.4479235 ] } },
{ "type": "Feature", "properties": { "name": "Hotel Samaúma", "address": null, "phone": null, "website": null, "social": "https://www.facebook.com/149063871956023", "category": "hotel", "confidence": 0.82254078101828965 }, "geometry": { "type": "Point", "coordinates": [ -48.7079527, -1.4928147 ] } },
{ "type": "Feature", "properties": { "name": "Hotel Sol", "address": "Avenida Cipriano Santos, 60", "phone": "+559132261767", "website": "https://hoteleldorado.com.br", "social": "https://www.facebook.com/519069348213956", "category": "hotel", "confidence": 0.82254078101828965 }, "geometry": { "type": "Point", "coordinates": [ -48.465642, -1.4498973 ] } },
{ "type": "Feature", "properties": { "name": "Hotel Spada", "address": "Rua Um, 22", "phone": "+559132577027", "website": "http://www.hotelspada.com", "social": "https://www.facebook.com/481850531873940", "category": "hotel", "confidence": 0.82254078101828965 }, "geometry": { "type": "Point", "coordinates": [ -48.477263, -1.39725 ] } },
{ "type": "Feature", "properties": { "name": "Hotel Tajá", "address": "Rua Deodoro de Mendonça, 497", "phone": "+559132263532", "website": "http://www.hoteltaja.com.br", "social": "https://www.facebook.com/244317659001620", "category": "hotel", "confidence": 0.82254078101828965 }, "geometry": { "type": "Point", "coordinates": [ -48.4661837, -1.4498818 ] } },
{ "type": "Feature", "properties": { "name": "Hotel Trans-Brasil", "address": "Avenida Cipriano Santos, 243", "phone": "+559132282500", "website": "http://www.hoteltransbrasil.com.br", "social": "https://www.facebook.com/135420846808539", "category": "hotel", "confidence": 0.82254078101828965 }, "geometry": { "type": "Point", "coordinates": [ -48.4640021, -1.4492276 ] } },
{ "type": "Feature", "properties": { "name": "Hotel Unidos", "address": "Rua Ó de Almeida, 545", "phone": "+559132521411", "website": "http://www.hotelunidos.com.br", "social": "https://www.facebook.com/161886030538994", "category": "hotel", "confidence": 0.63308457711442789 }, "geometry": { "type": "Point", "coordinates": [ -48.496295, -1.450484 ] } },
{ "type": "Feature", "properties": { "name": "Hotel Val de Cans", "address": "Rua Viracopos, 13", "phone": "+559132570531", "website": "http://www.hotelvaldecans.com.br", "social": "https://www.facebook.com/115878367000713", "category": "hotel", "confidence": 0.63308457711442789 }, "geometry": { "type": "Point", "coordinates": [ -48.474877, -1.399985 ] } },
{ "type": "Feature", "properties": { "name": "Hotel Vila Rica Belém", "address": "Avenida Júlio César, 1777", "phone": "+559183509517", "website": "http://www.hotelvilarica.com.br/", "social": "https://www.facebook.com/1047935048674135", "category": "hotel", "confidence": 0.82254078101828965 }, "geometry": { "type": "Point", "coordinates": [ -48.4713578, -1.4025479 ] } },
{ "type": "Feature", "properties": { "name": "Hotel amazônia belém", "address": "travessa frutuoso guimarães", "phone": null, "website": null, "social": "https://www.facebook.com/109960557236747", "category": "hotel", "confidence": 0.63308457711442789 }, "geometry": { "type": "Point", "coordinates": [ -48.49991, -1.45195 ] } },
{ "type": "Feature", "properties": { "name": "Hotel de Transito do Exercito", "address": "Avenida 16 de Novembro, 300", "phone": "+559132120428", "website": null, "social": "https://www.facebook.com/110957195656214", "category": "hotel", "confidence": 0.82254078101828965 }, "geometry": { "type": "Point", "coordinates": [ -48.499825, -1.458524 ] } },
{ "type": "Feature", "properties": { "name": "Hotel de Trânsito de ST/Sgt do Exército - HTS", "address": "Rua Duque de Caxias, 104", "phone": "+559132433483", "website": null, "social": "https://www.facebook.com/1930969137212640", "category": "hotel", "confidence": 0.63308457711442789 }, "geometry": { "type": "Point", "coordinates": [ -48.44511, -1.31843 ] } },
{ "type": "Feature", "properties": { "name": "Hotel de Trânsito dos Oficiais da Aeronautica", "address": "Rod. Artur Bernardes, s/n", "phone": "+559131829409", "website": null, "social": "https://www.facebook.com/162946114649102", "category": "hotel", "confidence": 0.63308457711442789 }, "geometry": { "type": "Point", "coordinates": [ -48.484372, -1.3938439 ] } },
{ "type": "Feature", "properties": { "name": "Hotel dos Reis", "address": "Travessa Jutai, 147", "phone": "+559133519375", "website": null, "social": "https://www.facebook.com/110958673702818", "category": "hotel", "confidence": 0.82254078101828965 }, "geometry": { "type": "Point", "coordinates": [ -48.4676071, -1.446998 ] } },
{ "type": "Feature", "properties": { "name": "Hotel e Hostel Amazônia", "address": "Rua Ó de Almeida, 548", "phone": "+559131197558", "website": "http://hotelamazoniabelem.com.br", "social": "https://www.facebook.com/297814720336352", "category": "hotel", "confidence": 0.82254078101828965 }, "geometry": { "type": "Point", "coordinates": [ -48.4959451, -1.450538 ] } },
{ "type": "Feature", "properties": { "name": "Hotel e Restaurante Ilha bela", "address": "Rua Principal, Próximo A Cairu", "phone": "+5591992427894", "website": null, "social": "https://www.facebook.com/764392883695659", "category": "hotel", "confidence": 0.82254078101828965 }, "geometry": { "type": "Point", "coordinates": [ -48.4580475, -1.1360244 ] } },
{ "type": "Feature", "properties": { "name": "Iate Borari", "address": "Avenida Bernardo Sayão, 4804", "phone": "+559121220232", "website": "http://www.hotelgoldmartan.com.br", "social": "https://www.facebook.com/589070741505088", "category": "hotel", "confidence": 0.82254078101828965 }, "geometry": { "type": "Point", "coordinates": [ -48.46449, -1.47576 ] } },
{ "type": "Feature", "properties": { "name": "Ibis Styles Belém Nazaré", "address": "Avenida Nazaré, 569", "phone": "+559133217177", "website": "https://www.accorhotels.com/pt-br/hotel-b1z9-ibis-styles-belem-nazare-/index.shtml#origin=accorhotels", "social": "https://www.facebook.com/143824215692558", "category": "hotel", "confidence": 0.95918437963420666 }, "geometry": { "type": "Point", "coordinates": [ -48.48768, -1.45227 ] } },
{ "type": "Feature", "properties": { "name": "Ibiza Lounge Belém", "address": "Avenida Braz de Aguiar, 304", "phone": "+5591981306007", "website": "https://ibizaloungebelem.com.br", "social": "https://www.facebook.com/100516651324234", "category": "bar", "confidence": 0.82254078101828965 }, "geometry": { "type": "Point", "coordinates": [ -48.48898, -1.45515 ] } },
{ "type": "Feature", "properties": { "name": "Ilha Do Cutijuba", "address": null, "phone": null, "website": null, "social": "https://www.facebook.com/661445873868257", "category": "hostel", "confidence": 0.63308457711442789 }, "geometry": { "type": "Point", "coordinates": [ -48.5603402, -1.2638925 ] } },
{ "type": "Feature", "properties": { "name": "Império Black", "address": "Travessa We 8 a Cidade Nova I, 37", "phone": "+5591983050054", "website": null, "social": "https://www.facebook.com/105816315354026", "category": "bar", "confidence": 0.63308457711442789 }, "geometry": { "type": "Point", "coordinates": [ -48.4073213, -1.358304 ] } },
{ "type": "Feature", "properties": { "name": "Irituia City-PA", "address": "Centro", "phone": "+559187114209", "website": "http://hotmail.com/", "social": "https://www.facebook.com/1415836421985123", "category": "hotel", "confidence": 0.63308457711442789 }, "geometry": { "type": "Point", "coordinates": [ -48.4757516, -1.4676734 ] } },
{ "type": "Feature", "properties": { "name": "Itaoca Belém Hotel", "address": "Avenida Presidente Vargas, 132", "phone": "+559140092400", "website": "http://www.hotelitaoca.com.br", "social": "https://www.facebook.com/167435599981168", "category": "hotel", "confidence": 0.63308457711442789 }, "geometry": { "type": "Point", "coordinates": [ -48.4983234, -1.448903 ] } },
{ "type": "Feature", "properties": { "name": "Jamaica Palace", "address": "Travessa Lomas Valentinas, 648", "phone": "+5591981027010", "website": null, "social": "https://www.facebook.com/225452791297186", "category": "bar", "confidence": 0.82254078101828965 }, "geometry": { "type": "Point", "coordinates": [ -48.4691286, -1.4247285 ] } },
{ "type": "Feature", "properties": { "name": "Jardim das acácias", "address": null, "phone": null, "website": null, "social": "https://www.facebook.com/327279821159336", "category": "bar", "confidence": 0.63308457711442789 }, "geometry": { "type": "Point", "coordinates": [ -48.1621686, -1.2888787 ] } },
{ "type": "Feature", "properties": { "name": "Jessica's Bar", "address": "Rua Lameira Bittencourt N°1001", "phone": null, "website": null, "social": "https://www.facebook.com/313529062451443", "category": "bar", "confidence": 0.63308457711442789 }, "geometry": { "type": "Point", "coordinates": [ -48.6229286, -1.5021804 ] } },
{ "type": "Feature", "properties": { "name": "Jurubeba Restô de Praia", "address": "Av.Beira Mar", "phone": "+5591985408833", "website": null, "social": "https://www.facebook.com/146777322710752", "category": "restaurant", "confidence": 0.82254078101828965 }, "geometry": { "type": "Point", "coordinates": [ -48.4347725, -1.1165008 ] } },
{ "type": "Feature", "properties": { "name": "Kasa Maguari", "address": "Avenida Augusto Montenegro, km 9, n 11", "phone": null, "website": null, "social": "https://www.facebook.com/102598145374396", "category": "bar", "confidence": 0.63308457711442789 }, "geometry": { "type": "Point", "coordinates": [ -48.4497895, -1.3322907 ] } },
{ "type": "Feature", "properties": { "name": "King of Beards", "address": "Travessa Vilela, 1174", "phone": "+5591980875118", "website": "http://bit.ly/whatskingofbeards", "social": "https://www.facebook.com/101410371640185", "category": "bar", "confidence": 0.82254078101828965 }, "geometry": { "type": "Point", "coordinates": [ -48.4728277, -1.4330085 ] } },
{ "type": "Feature", "properties": { "name": "LAJES BAR", "address": "Estrada do Aurá, 50", "phone": "+5591981865533", "website": null, "social": "https://www.facebook.com/2010887669127028", "category": "bar", "confidence": 0.82254078101828965 }, "geometry": { "type": "Point", "coordinates": [ -48.387399, -1.396243 ] } },
{ "type": "Feature", "properties": { "name": "LC PUB", "address": "Rua 8 de Maio, 36", "phone": "+5591983572987", "website": null, "social": "https://www.facebook.com/103970231444512", "category": "bar", "confidence": 0.82254078101828965 }, "geometry": { "type": "Point", "coordinates": [ -48.47064, -1.29825 ] } },
{ "type": "Feature", "properties": { "name": "LORD HOTEL", "address": "Rua Padre Raimundo Severino de Matos Quadra: 42  Lote:03", "phone": "+5591991405006", "website": null, "social": "https://www.facebook.com/2029797427289575", "category": "hotel", "confidence": 0.82254078101828965 }, "geometry": { "type": "Point", "coordinates": [ -48.686348, -1.528144 ] } },
{ "type": "Feature", "properties": { "name": "Latino Paraense - Hostel e Pousada", "address": "Praia da Flexeira - Cotijuba", "phone": "+5591980873873", "website": null, "social": "https://www.facebook.com/410260552794175", "category": "hostel", "confidence": 0.82254078101828965 }, "geometry": { "type": "Point", "coordinates": [ -48.50288, -1.45434 ] } },
{ "type": "Feature", "properties": { "name": "Lico's Bar e Depósito", "address": "Rua Paulo Cícero, 547", "phone": "+5591982025057", "website": null, "social": "https://www.facebook.com/973706842795384", "category": "bar", "confidence": 0.63308457711442789 }, "geometry": { "type": "Point", "coordinates": [ -48.4716589, -1.4697565 ] } },
{ "type": "Feature", "properties": { "name": "Litoral Palace Hotel", "address": "Avenida Cipriano Santos, 64", "phone": "+559132281730", "website": null, "social": "https://www.facebook.com/184658285515638", "category": "hotel", "confidence": 0.63308457711442789 }, "geometry": { "type": "Point", "coordinates": [ -48.4655861, -1.4498121 ] } },
{ "type": "Feature", "properties": { "name": "Lucy Lanches", "address": "Avenida Pedro Constantino, 1470", "phone": "+5537444080", "website": null, "social": "https://www.facebook.com/127731824055161", "category": "restaurant", "confidence": 0.63308457711442789 }, "geometry": { "type": "Point", "coordinates": [ -48.163681, -1.293656 ] } },
{ "type": "Feature", "properties": { "name": "Lug's - Metrópole Ananindeua", "address": "Shopping Metrópole Ananindeua", "phone": "+559132353452", "website": null, "social": "https://www.facebook.com/144420562838065", "category": "restaurant", "confidence": 0.82254078101828965 }, "geometry": { "type": "Point", "coordinates": [ -48.37212, -1.366 ] } },