{
"type": "FeatureCollection",
"name": "places",
"features": [
{ "type": "Feature", "properties": { "name": "Arruda HOTEL Benevides", "address": "Rua da Campestre, 316", "phone": "+559132741496", "website": null, "social": "https://www.facebook.com/100955094638074", "category": "hotel", "confidence": 0.82254078101828965 }, "geometry": { "type": "Point", "coordinates": [ -48.2739893, -1.3637795 ] } },
{ "type": "Feature", "properties": { "name": "Atrium Quinta De Pedras", "address": "Rua Doutor Assis, 834", "phone": "+559131991605", "website": "http://atriumhoteis.com.br/pt/hoteis/atrium-quinta-de-pedras-belem", "social": "https://www.facebook.com/1504713439835995", "category": "hotel", "confidence": 0.82254078101828965 }, "geometry": { "type": "Point", "coordinates": [ -48.5042266, -1.46317 ] } },
{ "type": "Feature", "properties": { "name": "Augusto Hotel", "address": "Vila do Conde - Barcarena - Pará", "phone": "+559181385206", "website": null, "social": "https://www.facebook.com/535118346632093", "category": "hotel", "confidence": 0.82254078101828965 }, "geometry": { "type": "Point", "coordinates": [ -48.7628643, -1.5640437 ] } },
{ "type": "Feature", "properties": { "name": "Bar Casal Feliz", "address": "Passagem Cabedelo, 235", "phone": null, "website": null, "social": "https://www.facebook.com/797505447004509", "category": "hotel", "confidence": 0.63308457711442789 }, "geometry": { "type": "Point", "coordinates": [ -48.4759059, -1.4139567 ] } },
{ "type": "Feature", "properties": { "name": "Beira Rio Hotel", "address": "Avenida Bernardo Sayão, 4804", "phone": "+559140089000", "website": "http://www.beirariohotel.com.br", "social": "https://www.facebook.com/503136889750048", "category": "hotel", "confidence": 0.82254078101828965 }, "geometry": { "type": "Point", "coordinates": [ -48.46449, -1.47576 ] } },
{ "type": "Feature", "properties": { "name": "Belém Hostel", "address": "Rua Ó de Almeida, 624", "phone": "+5591982132800", "website": "http://www.belemhostel.com.br/", "social": "https://www.facebook.com/300347803494446", "category": "hostel", "confidence": 0.82254078101828965 }, "geometry": { "type": "Point", "coordinates": [ -48.4953106, -1.4501229 ] } },
{ "type": "Feature", "properties": { "name": "Belém Soft Hotel", "address": "Avenida Braz de Aguiar, 612", "phone": "+559133233400", "website": "http://www.belemsofthotel.com.br", "social": "https://www.facebook.com/185201694851125", "category": "hotel", "confidence": 0.82254078101828965 }, "geometry": { "type": "Point", "coordinates": [ -48.486206, -1.45482 ] } },
{ "type": "Feature", "properties": { "name": "Boate e Motel Locomotiva", "address": "Avenida Pedro Álvares Cabral, 4765", "phone": "+559132332668", "website": "http://www.alocomotiva.com.br", "social": "https://www.facebook.com/298360460977503", "category": "hotel", "confidence": 0.82254078101828965 }, "geometry": { "type": "Point", "coordinates": [ -48.4733178, -1.4124935 ] } },
{ "type": "Feature", "properties": { "name": "Bristol Umarizal Belem", "address": "Travessa Dom Pedro I, 1104", "phone": "+559133496326", "website": "http://www.bristolhoteis.com.br/hotel,umarizal", "social": "https://www.facebook.com/1753456458291627", "category": "hotel", "confidence": 0.82254078101828965 }, "geometry": { "type": "Point", "coordinates": [ -48.483981, -1.439747 ] } },
{ "type": "Feature", "properties": { "name": "Búzios", "address": null, "phone": null, "website": null, "social": "https://www.facebook.com/286730455127501", "category": "hotel", "confidence": 0.63308457711442789 }, "geometry": { "type": "Point", "coordinates": [ -48.6973721, -1.5203593 ] } },
{ "type": "Feature", "properties": { "name": "Casa De Praia Mosqueiro", "address": "Av. 16 de Novembro, Praça Do Chapéu Virado, ao Lado do Ed. Russo.", "phone": "+5591981944260", "website": null, "social": "https://www.facebook.com/489825851411785", "category": "hotel", "confidence": 0.82254078101828965 }, "geometry": { "type": "Point", "coordinates": [ -48.4589799, -1.13742 ] } },
{ "type": "Feature", "properties": { "name": "CasaBlanca Pousada", "address": "Rua Olinto Meira Nº142", "phone": "+559132351184", "website": null, "social": "https://www.facebook.com/2137916349797648", "category": "hotel", "confidence": 0.82254078101828965 }, "geometry": { "type": "Point", "coordinates": [ -48.42292, -1.4060999 ] } },
{ "type": "Feature", "properties": { "name": "Central guindastes brasil", "address": "Av Dom Rumaldo Coelho QD 375 LT18- Ao lado do Lisboa", "phone": "+5591983515000", "website": null, "social": "https://www.facebook.com/443577613072479", "category": "hotel", "confidence": 0.82254078101828965 }, "geometry": { "type": "Point", "coordinates": [ -48.6848387, -1.5283667 ] } },
{ "type": "Feature", "properties": { "name": "Chaplin Birosk", "address": "Rua da Marina, esquina da Oriximiná -Marambaia ", "phone": "+559132313182", "website": null, "social": "https://www.facebook.com/143522932928256", "category": "hotel", "confidence": 0.82254078101828965 }, "geometry": { "type": "Point", "coordinates": [ -48.4603894, -1.3951963 ] } },
{ "type": "Feature", "properties": { "name": "Chácara Nossa Senhora de Nazaré", "address": "Rua Expedito Leão, nº 150, Pau d'Arco", "phone": "+5591999431192", "website": null, "social": "https://www.facebook.com/121163048528128", "category": "hotel", "confidence": 0.82254078101828965 }, "geometry": { "type": "Point", "coordinates": [ -48.29266, -1.22664 ] } },
{ "type": "Feature", "properties": { "name": "Clube da Matilha", "address": "Tv. Angustura, 2218. (Entre Visconde e Marquês de Herval)", "phone": "+5591985272218", "website": "http://bit.ly/2mi7zri", "social": "https://www.facebook.com/1770666042956217", "category": "hotel", "confidence": 0.82254078101828965 }, "geometry": { "type": "Point", "coordinates": [ -48.4642593, -1.4223671 ] } },
{ "type": "Feature", "properties": { "name": "Colibri Baby Hotel", "address": "Avenida Conselheiro Furtado, 467", "phone": "+559133434315", "website": "http://www.colibribaby.com.br", "social": "https://www.facebook.com/139170552929007", "category": "hotel", "confidence": 0.82254078101828965 }, "geometry": { "type": "Point", "coordinates": [ -48.4925254, -1.4607926 ] } },
{ "type": "Feature", "properties": { "name": "Conjunto Val De Cans", "address": null, "phone": "+559132980696", "website": "http://www.hotelvaldecans.com.br/", "social": "https://www.facebook.com/985536398136884", "category": "hotel", "confidence": 0.63308457711442789 }, "geometry": { "type": "Point", "coordinates": [ -48.4771417, -1.4021709 ] } },
{ "type": "Feature", "properties": { "name": "Costa del Sol Resort", "address": "Rua Paraiso, 300", "phone": "+5532147800", "website": "http://www.costadelsolresort.com.br/", "social": "https://www.facebook.com/1589797081294479", "category": "hotel", "confidence": 0.82254078101828965 }, "geometry": { "type": "Point", "coordinates": [ -48.4710395, -1.3456376 ] } },
{ "type": "Feature", "properties": { "name": "Crowne Plaza Belem", "address": "Avenida Nazaré, 375", "phone": "+559132022000", "website": "http://www.crowneplaza.com/redirect?brandcode=cp&regioncode=1&path=hd&localecode=en&hotelcode=bprhi", "social": "https://www.facebook.com/195749507120637", "category": "hotel", "confidence": 0.63308457711442789 }, "geometry": { "type": "Point", "coordinates": [ -48.489394, -1.452769 ] } },
{ "type": "Feature", "properties": { "name": "Ecopousada Bacabas", "address": "Estrada da Maravilha", "phone": "+5591992322725", "website": "http://www.ecopousadabacabas.com.br/", "social": "https://www.facebook.com/1068622269985002", "category": "hotel", "confidence": 0.82254078101828965 }, "geometry": { "type": "Point", "coordinates": [ -48.15601, -1.29708 ] } },
{ "type": "Feature", "properties": { "name": "Ecopousada Miriti", "address": "Travessa Padre Prudêncio, 656", "phone": "+5591984448586", "website": "https://api.whatsapp.com/send?phone=5591984448586&text=ecopousada%20miriti", "social": "https://www.facebook.com/168628173256650", "category": "hotel", "confidence": 0.82254078101828965 }, "geometry": { "type": "Point", "coordinates": [ -48.495523, -1.455066 ] } },
{ "type": "Feature", "properties": { "name": "Equinócios", "address": "Av. Cônego Batista Campos, s/n Qd:, 065", "phone": "+559137543888", "website": "http://www.hotelequinocios.com.br", "social": "https://www.facebook.com/150547415025275", "category": "hotel", "confidence": 0.82254078101828965 }, "geometry": { "type": "Point", "coordinates": [ -48.6884392, -1.5289586 ] } },
{ "type": "Feature", "properties": { "name": "Escola Hotel Essencial", "address": "Avenida Senador Lemos, 1072", "phone": null, "website": null, "social": "https://www.facebook.com/206162316246754", "category": "hotel", "confidence": 0.63308457711442789 }, "geometry": { "type": "Point", "coordinates": [ -48.4865757, -1.4342909 ] } },
{ "type": "Feature", "properties": { "name": "Eternu's Motel", "address": "Travessa Vilela, 1452", "phone": "+19132360771", "website": "http://www.eternus.com.br", "social": "https://www.facebook.com/131165276952562", "category": "hotel", "confidence": 0.63308457711442789 }, "geometry": { "type": "Point", "coordinates": [ -48.47074, -1.434535 ] } },
{ "type": "Feature", "properties": { "name": "Fit Motel", "address": "Avenida Engenheiro Fernando Guilhon, 654", "phone": "+559133668989", "website": "http://www.fitmotel.com.br", "social": "https://www.facebook.com/215241608631240", "category": "hotel", "confidence": 0.82254078101828965 }, "geometry": { "type": "Point", "coordinates": [ -48.4941134, -1.4756488 ] } },
{ "type": "Feature", "properties": { "name": "G1 Hotel", "address": "Rodovia Augusto Montenegro, 118", "phone": "+559132314002", "website": "http://www.g1hotel.com.br", "social": "https://www.facebook.com/211630348866563", "category": "hotel", "confidence": 0.82254078101828965 }, "geometry": { "type": "Point", "coordinates": [ -48.4345207, -1.4023339 ] } },
{ "type": "Feature", "properties": { "name": "Go Inn Belem", "address": "Rua Senador Manoel Barata, 532", "phone": "+559133970310", "website": "http://www.goinnbelem.com.br", "social": "https://www.facebook.com/587772164926905", "category": "hotel", "confidence": 0.95918437963420666 }, "geometry": { "type": "Point", "coordinates": [ -48.498739, -1.451963 ] } },
{ "type": "Feature", "properties": { "name": "Gold Martan Hotel", "address": "Rua Professor Nelson Ribeiro, 132", "phone": "+5591983400910", "website": "http://www.hotelgoldmartan.com.br", "social": "https://www.facebook.com/114082522077428", "category": "hotel", "confidence": 0.63308457711442789 }, "geometry": { "type": "Point", "coordinates": [ -48.49212, -1.43156 ] } },
{ "type": "Feature", "properties": { "name": "Grand Hostel Belém", "address": "Avenida Presidente Vargas, 646", "phone": "+5591981466580", "website": "http://www.grandhostelbelem.com", "social": "https://www.facebook.com/349015475512968", "category": "hostel", "confidence": 0.63308457711442789 }, "geometry": { "type": "Point", "coordinates": [ -48.49588, -1.4525999 ] } },
{ "type": "Feature", "properties": { "name": "Green Médice Park Resort Hotel Marina Club Number One", "address": null, "phone": null, "website": null, "social": "https://www.facebook.com/276944775722820", "category": "hotel", "confidence": 0.63308457711442789 }, "geometry": { "type": "Point", "coordinates": [ -48.4565011, -1.3990303 ] } },
{ "type": "Feature", "properties": { "name": "HOTEL Grão-Para", "address": "Avenida Presidente Vargas, 718", "phone": "+559133212121", "website": "http://www.hotelgraopara.com.br", "social": "https://www.facebook.com/336608416477453", "category": "hotel", "confidence": 0.82254078101828965 }, "geometry": { "type": "Point", "coordinates": [ -48.4953789, -1.4528883 ] } },
{ "type": "Feature", "properties": { "name": "HOTEL RUBI", "address": "Tv. Crispim dos Santos Qd 326 Lt02", "phone": "+5591993916335", "website": null, "social": "https://www.facebook.com/463623307713396", "category": "hotel", "confidence": 0.82254078101828965 }, "geometry": { "type": "Point", "coordinates": [ -48.6938214, -1.5164325 ] } },
{ "type": "Feature", "properties": { "name": "Hangar House Hostel", "address": "Avenida Duque de Caxias, 1384", "phone": "+5591985403441", "website": null, "social": "https://www.facebook.com/2178239932442800", "category": "hostel", "confidence": 0.82254078101828965 }, "geometry": { "type": "Point", "coordinates": [ -48.45935, -1.42665 ] } },
{ "type": "Feature", "properties": { "name": "Havan Ananindeua", "address": "Rod. Br 316, Km 8 - Levilândia, Pa.", "phone": null, "website": null, "social": "https://www.facebook.com/103443901610971", "category": "hotel", "confidence": 0.63308457711442789 }, "geometry": { "type": "Point", "coordinates": [ -48.3823443, -1.3705667 ] } },
{ "type": "Feature", "properties": { "name": "Hilton Belem", "address": "Av. Pres. Vargas 882", "phone": "9140067000", "website": "http://www3.hilton.com/en/hotels/par/hilton-belem-BELHIHH/index.html?WT.mc_id=zMKWADM0AA1HH2OLG3Bing4BingPlaces5BELHIHH7BR", "social": null, "category": "hotel", "confidence": 0.89329527763362737 }, "geometry": { "type": "Point", "coordinates": [ -48.4943084, -1.4535511 ] } },
{ "type": "Feature", "properties": { "name": "Holiday Inn Express Belém Ananindeua", "address": "Rod. BR-316 S/N, km. 01 (Guanabara)", "phone": "9133467800", "website": "https://www.ihg.com/holidayinnexpress/hotels/us/en/belem/bprex/hoteldetail?cm_mmc=BingMaps-_-EX-_-BR-_-BPREX", "social": null, "category": "hotel", "confidence": 0.77 }, "geometry": { "type": "Point", "coordinates": [ -48.4237779, -1.3979772 ] } },
{ "type": "Feature", "properties": { "name": "Hostel Antonieta", "address": "Avenida Governador José Malcher, 592", "phone": "+5591987272421", "website": null, "social": "https://www.facebook.com/689307751491242", "category": "hostel", "confidence": 0.82254078101828965 }, "geometry": { "type": "Point", "coordinates": [ -48.48803, -1.45177 ] } },
{ "type": "Feature", "properties": { "name": "Hostel BELÉM Jardim Nazaré", "address": "Alameda Lúcio Amaral, 77", "phone": null, "website": null, "social": "https://www.facebook.com/109658674812263", "category": "hostel", "confidence": 0.63308457711442789 }, "geometry": { "type": "Point", "coordinates": [ -48.479644, -1.454303 ] } },
{ "type": "Feature", "properties": { "name": "Hostel Pai D'egua", "address": "Travessa Padre Prudêncio, 688", "phone": "+5591993909287", "website": "http://www.hostelpaidegua.com.br", "social": "https://www.facebook.com/103439204434105", "category": "hostel", "confidence": 0.82254078101828965 }, "geometry": { "type": "Point", "coordinates": [ -48.49537, -1.45502 ] } },
{ "type": "Feature", "properties": { "name": "Hotel & Restaurante Beira Rio", "address": null, "phone": null, "website": "http://hotelbeirari2.wix.com/hotelbeirariobujaru", "social": "https://www.facebook.com/419613081494503", "category": "hotel", "confidence": 0.82254078101828965 }, "geometry": { "type": "Point", "coordinates": [ -48.4646134, -1.4758494 ] } },
{ "type": "Feature", "properties": { "name": "Hotel Akemi", "address": "Avenida Ceará, 81", "phone": "+19132265961", "website": null, "social": "https://www.facebook.com/1450392585198146", "category": "hotel", "confidence": 0.63308457711442789 }, "geometry": { "type": "Point", "coordinates": [ -48.4650526, -1.4477627 ] } },
{ "type": "Feature", "properties": { "name": "Hotel Amazonia- Vila dos cabanos", "address": null, "phone": "+559137540955", "website": "http://www.equinocios.com.br", "social": "https://www.facebook.com/520504414648310", "category": "hotel", "confidence": 0.63308457711442789 }, "geometry": { "type": "Point", "coordinates": [ -48.6939001, -1.5163645 ] } },
{ "type": "Feature", "properties": { "name": "Hotel Antiga Roma", "address": "Rua Manaus, 45", "phone": "+5591984494042", "website": "http://www.hotelantigaroma.com", "social": "https://www.facebook.com/110017824469549", "category": "hotel", "confidence": 0.82254078101828965 }, "geometry": { "type": "Point", "coordinates": [ -48.39664, -1.39224 ] } },
{ "type": "Feature", "properties": { "name": "Hotel Arruda Marituba", "address": null, "phone": "+5591981283078", "website": null, "social": "https://www.facebook.com/100930988779167", "category": "hotel", "confidence": 0.82254078101828965 }, "geometry": { "type": "Point", "coordinates": [ -48.3318489, -1.3653455 ] } },
{ "type": "Feature", "properties": { "name": "Hotel Avalon", "address": "Avenida Professor José Gomes Teles, 90", "phone": "+5591982450015", "website": null, "social": "https://www.facebook.com/1999143060305042", "category": "hotel", "confidence": 0.82254078101828965 }, "geometry": { "type": "Point", "coordinates": [ -48.253664, -1.360556 ] } },
{ "type": "Feature", "properties": { "name": "Hotel Beira Rio", "address": null, "phone": "+19137461137", "website": "http://hotelbeirari2.wix.com/hotelbeirariobujaru", "social": "https://www.facebook.com/321853118598300", "category": "hotel", "confidence": 0.63308457711442789 }, "geometry": { "type": "Point", "coordinates": [ -48.0470832, -1.5190004 ] } },
{ "type": "Feature", "properties": { "name": "Hotel Belém.", "address": "Rua Ó de Almeida, 476", "phone": "+559132255695", "website": "http://www.hotelbelem.com.br", "social": "https://www.facebook.com/209095449160777", "category": "hotel", "confidence": 0.63308457711442789 }, "geometry": { "type": "Point", "coordinates": [ -48.49639, -1.45099 ] } },
{ "type": "Feature", "properties": { "name": "Hotel Cabano", "address": "Av Jerônimo Pimentel Qd 380 lote 09 , vila dos cabanos,  Barcarena, próximo a magnos club e lojas americanas ", "phone": "+5591983206479", "website": null, "social": "https://www.facebook.com/1043085422416024", "category": "hotel", "confidence": 0.82254078101828965 }, "geometry": { "type": "Point", "coordinates": [ -48.697537, -1.520414 ] } },
{ "type": "Feature", "properties": { "name": "Hotel Cacique", "address": "Avenida Francisco Amancio", "phone": null, "website": null, "social": "https://www.facebook.com/101797834988187", "category": "hotel", "confidence": 0.82254078101828965 }, "geometry": { "type": "Point", "coordinates": [ -48.1600655, -1.298112 ] } },
{ "type": "Feature", "properties": { "name": "Hotel Central Belém", "address": "Rua Aristides Lobo, 485", "phone": "+5591993888888", "website": "http://www.booking.com/hotel/br/hostel-central-belem.html", "social": "https://www.facebook.com/447027902323193", "category": "hotel", "confidence": 0.82254078101828965 }, "geometry": { "type": "Point", "coordinates": [ -48.4960839, -1.4510985 ] } },
{ "type": "Feature", "properties": { "name": "Hotel Concentração Do Paysandu", "address": "Estádio Leônidas sodré de Castro (Curuzu)", "phone": null, "website": "http://www.grandplazashopping.com.br/", "social": "https://www.facebook.com/1617376671916761", "category": "hotel", "confidence": 0.63308457711442789 }, "geometry": { "type": "Point", "coordinates": [ -48.462842, -1.4443307 ] } },
{ "type": "Feature", "properties": { "name": "Hotel Concha do Mar Salinas", "address": null, "phone": null, "website": null, "social": "https://www.facebook.com/433448407116971", "category": "hotel", "confidence": 0.63308457711442789 }, "geometry": { "type": "Point", "coordinates": [ -48.43669, -1.39856 ] } },
{ "type": "Feature", "properties": { "name": "Hotel Conde", "address": "Travessa da Matriz, 137", "phone": "+559137531100", "website": null, "social": "https://www.facebook.com/186331694738977", "category": "hotel", "confidence": 0.82254078101828965 }, "geometry": { "type": "Point", "coordinates": [ -48.625393, -1.5053983 ] } },
{ "type": "Feature", "properties": { "name": "Hotel Danubio", "address": "Travessa Primeira de Queluz, 63", "phone": "+542255462328", "website": "http://www.hoteldanubiogesell.com.ar", "social": "https://www.facebook.com/718719871494123", "category": "hotel", "confidence": 0.82254078101828965 }, "geometry": { "type": "Point", "coordinates": [ -48.46507, -1.44884 ] } },
{ "type": "Feature", "properties": { "name": "Hotel Farol - Mosqueiro", "address": "Avenida Princesa Izabel, 3295", "phone": "+559137712095", "website": "http://www.hotelfarol.com.br", "social": "https://www.facebook.com/225539320838865", "category": "hotel", "confidence": 0.82254078101828965 }, "geometry": { "type": "Point", "coordinates": [ -48.466938, -1.134042 ] } },
{ "type": "Feature", "properties": { "name": "Hotel Fazenda Paraiso", "address": "Praia do Paraíso - Beira Mar, 0", "phone": "+559132044666", "website": "http://hotelfazendaparaiso.com.br/", "social": "https://www.facebook.com/281598051852119", "category": "hotel", "confidence": 0.82254078101828965 }, "geometry": { "type": "Point", "coordinates": [ -48.379953, -1.066687 ] } },
{ "type": "Feature", "properties": { "name": "Hotel Fazenda Santa Rosa", "address": "Rodovia PA140 Km 39", "phone": "+559138333000", "website": "http://www.hotelfazendasantarosa.com.br", "social": "https://www.facebook.com/1727862747467052", "category": "hotel", "confidence": 0.63308457711442789 }, "geometry": { "type": "Point", "coordinates": [ -48.471281, -1.417416 ] } },
{ "type": "Feature", "properties": { "name": "Hotel Flor de Lótus", "address": "Rua 7 de Janeiro", "phone": "+5537441763", "website": null, "social": "https://www.facebook.com/1275427199263691", "category": "hotel", "confidence": 0.82254078101828965 }, "geometry": { "type": "Point", "coordinates": [ -48.1554335, -1.2904023 ] } },
{ "type": "Feature", "properties": { "name": "Hotel Fortaleza", "address": "Travessa Frutuoso Guimarães, 276", "phone": "+559132121055", "website": null, "social": "https://www.facebook.com/145887978948665", "category": "hotel", "confidence": 0.63308457711442789 }, "geometry": { "type": "Point", "coordinates": [ -48.4996256, -1.4522123 ] } },
{ "type": "Feature", "properties": { "name": "Hotel Fênixx", "address": "Av. Almirante Barroso n°35 Altos. Bairro São Brás (Próximo ao terminal rodoviário)  ", "phone": "+559132469650", "website": null, "social": "https://www.facebook.com/363165823884201", "category": "hotel", "confidence": 0.63308457711442789 }, "geometry": { "type": "Point", "coordinates": [ -48.4676857, -1.4504018 ] } },
{ "type": "Feature", "properties": { "name": "Hotel Gold Martan", "address": "Rodovia Mário Covas, 91", "phone": "+559121220232", "website": "http://www.hotelgoldmartan.com.br", "social": "https://www.facebook.com/220360335393845", "category": "hotel", "confidence": 0.82254078101828965 }, "geometry": { "type": "Point", "coordinates": [ -48.4281785, -1.3607987 ] } },
{ "type": "Feature", "properties": { "name": "Hotel Hangar", "address": "Travessa Alferes Costa, 2716", "phone": "+559133557372", "website": "http://www.hotelhangar.com.br", "social": "https://www.facebook.com/290301414479581", "category": "hotel", "confidence": 0.82254078101828965 }, "geometry": { "type": "Point", "coordinates": [ -48.457803, -1.42517 ] } },
{ "type": "Feature", "properties": { "name": "Hotel Hilma", "address": "Rodovia BR-316, S/N km 05", "phone": "+19132454231", "website": "http://www.hotelhilma.blogspot.com", "social": "https://www.facebook.com/221531064530916", "category": "hotel", "confidence": 0.63308457711442789 }, "geometry": { "type": "Point", "coordinates": [ -48.4085284, -1.3859216 ] } },
{ "type": "Feature", "properties": { "name": "Hotel Ibis", "address": "Avenida Júlio César, 1675", "phone": "+19133445650", "website": "https://all.accor.com/hotel/5631/index.en.shtml?y_source=1_mtuznja1njctndqwlwxvy2f0aw9ulndlynnpdgu=", "social": "https://www.facebook.com/103569666398661", "category": "hotel", "confidence": 0.95918437963420666 }, "geometry": { "type": "Point", "coordinates": [ -48.4717216, -1.4020267 ] } },
{ "type": "Feature", "properties": { "name": "Hotel Ipê", "address": "Avenida Governador José Malcher, 2953", "phone": "+559132044100", "website": "http://www.hotelipe.com.br", "social": "https://www.facebook.com/167529826638078", "category": "hotel", "confidence": 0.82254078101828965 }, "geometry": { "type": "Point", "coordinates": [ -48.4672694, -1.4481022 ] } },
{ "type": "Feature", "properties": { "name": "Hotel Jardim Tropical", "address": null, "phone": "+5591981991978", "website": "http://www.hoteljardimtropical.com.br", "social": "https://www.facebook.com/1741027219466262", "category": "hotel", "confidence": 0.82254078101828965 }, "geometry": { "type": "Point", "coordinates": [ -48.708773, -1.512355 ] } },
{ "type": "Feature", "properties": { "name": "Hotel Le Massilia", "address": "Rua Henrique Gurjão, 235", "phone": "+5591982821488", "website": "http://www.lemassiliahotel.com.br", "social": "https://www.facebook.com/239365963184575", "category": "hotel", "confidence": 0.82254078101828965 }, "geometry": { "type": "Point", "coordinates": [ -48.49178, -1.45061 ] } },
{ "type": "Feature", "properties": { "name": "Hotel M & K", "address": "Rua Deodoro de Mendonça, 315", "phone": "+559132595116", "website": null, "social": "https://www.facebook.com/202912489749580", "category": "hotel", "confidence": 0.82254078101828965 }, "geometry": { "type": "Point", "coordinates": [ -48.4670975, -1.4514402 ] } },
{ "type": "Feature", "properties": { "name": "Hotel Marajoara Belém", "address": "Passagem Joaquim Nabuco, 59", "phone": "+5591982863569", "website": "http://www.hotelmarajoarabelem.com.br", "social": "https://www.facebook.com/495227843943969", "category": "hotel", "confidence": 0.82254078101828965 }, "geometry": { "type": "Point", "coordinates": [ -48.48387, -1.45106 ] } },
{ "type": "Feature", "properties": { "name": "Hotel Marituba", "address": "Rua da Cerâmica, 1", "phone": "+191983558378", "website": null, "social": "https://www.facebook.com/1092602194125105", "category": "hotel", "confidence": 0.63308457711442789 }, "geometry": { "type": "Point", "coordinates": [ -48.33474, -1.35272 ] } },
{ "type": "Feature", "properties": { "name": "Hotel Miriti", "address": null, "phone": null, "website": null, "social": "https://www.facebook.com/168521723239186", "category": "hotel", "confidence": 0.63308457711442789 }, "geometry": { "type": "Point", "coordinates": [ -48.0470178, -1.5203752 ] } },
{ "type": "Feature", "properties": { "name": "Hotel Murubira seresta", "address": null, "phone": null, "website": null, "social": "https://www.facebook.com/124952657581312", "category": "hotel", "confidence": 0.63308457711442789 }, "geometry": { "type": "Point", "coordinates": [ -48.4417303, -1.1209236 ] } },
{ "type": "Feature", "properties": { "name": "Hotel Novo Avenida", "address": "Avenida Presidente Vargas, 404", "phone": "+559132282500", "website": "http://www.hotelnovoavenida.com.br", "social": "https://www.facebook.com/251984531506423", "category": "hotel", "confidence": 0.82254078101828965 }, "geometry": { "type": "Point", "coordinates": [ -48.49697, -1.450992 ] } },
{ "type": "Feature", "properties": { "name": "Hotel Paraíso", "address": "Travessa Timbó, 3099", "phone": "+5591984267038", "website": "https://www.booking.com/hotel/br/paraiso-belem.pt-br.html?label=gen173bo-1dcasoieincgfyywlzby1izwxlbugzwanoiigbazgbh7gbgmgbdngba-gbaygcazgcbqgcblgcy6hxnqbaaghsairkzdc4mdbizs00yju4ltq0ytktotu1yy1kytywngfhnjazowbyagtgage&sid=7959179321fc7dc3ffb3db320558633c&lang=pt-br&room1=a%2ca&sb_price_type=total&soz=1&type=total&lang_click=other&cdl=pt-pt&lang_changed=1", "social": "https://www.facebook.com/156260017760763", "category": "hotel", "confidence": 0.82254078101828965 }, "geometry": { "type": "Point", "coordinates": [ -48.458651, -1.440448 ] } },
{ "type": "Feature", "properties": { "name": "Hotel Princesa Louçã", "address": "Avenida Presidente Vargas, 882", "phone": "+559140067000", "website": "http://www.princesabelem.com.br/", "social": "https://www.facebook.com/336713516519785", "category": "hotel", "confidence": 0.82254078101828965 }, "geometry": { "type": "Point", "coordinates": [ -48.4943457, -1.453453 ] } },
{ "type": "Feature", "properties": { "name": "Hotel Quinta De Pedras", "address": null, "phone": null, "website": null, "social": "https://www.facebook.com/677702742366343", "category": "hotel", "confidence": 0.63308457711442789 }, "geometry": { "type": "Point", "coordinates": [ -48.5, -1.45 ] } },
{ "type": "Feature", "properties": { "name": "Hotel Raiar do Sol", "address": "Avenida Dom Romualdo Coelho, 380", "phone": "+559137541502", "website": "http://raiardosol5.webnode.com/o-hotel/", "social": "https://www.facebook.com/394541110661997", "category": "hotel", "confidence": 0.63308457711442789 }, "geometry": { "type": "Point", "coordinates": [ -48.6975325, -1.5211017 ] } },
{ "type": "Feature", "properties": { "name": "Hotel Raludi", "address": "Av Francisco Vinagre", "phone": "+5591993761420", "website": "http://www.raludi.com.br", "social": "https://www.facebook.com/125471351126880", "category": "hotel", "confidence": 0.63308457711442789 }, "geometry": { "type": "Point", "coordinates": [ -48.6944172, -1.5115213 ] } },
{ "type": "Feature", "properties": { "name": "Hotel Real Belém", "address": "Travessa Nina Ribeiro, 91", "phone": "+559132280170", "website": null, "social": "https://www.facebook.com/104529260936295", "category": "hotel", "confidence": 0.82254078101828965 }, "geometry": { "type": "Point", "coordinates": [ -48.4643041, -1.4489929 ] } },
{ "type": "Feature", "properties": { "name": "Hotel Riviera d'Amazônia", "address": "Rodovia Mário Covas, 1228", "phone": "+559140069900", "website": "http://www.rivieradamazonia.com.br", "social": "https://www.facebook.com/579159675504881", "category": "hotel", "confidence": 0.82254078101828965 }, "geometry": { "type": "Point", "coordinates": [ -48.4146038, -1.374755 ] } },
{ "type": "Feature", "properties": { "name": "Hotel Sagres", "address": "Avenida Governador José Malcher, 2927", "phone": "+559140050005", "website": "http://www.hotelsagres.com", "social": "https://www.facebook.com/172082009613354", "category": "hotel", "confidence": 0.82254078101828965 }, "geometry": { "type": "Point", "coordinates": [ -48.4676573, -1.4479235 ] } },
{ "type": "Feature", "properties": { "name": "Hotel Samaúma", "address": null, "phone": null, "website": null, "social": "https://www.facebook.com/149063871956023", "category": "hotel", "confidence": 0.82254078101828965 }, "geometry": { "type": "Point", "coordinates": [ -48.7079527, -1.4928147 ] } },
{ "type": "Feature", "properties": { "name": "Hotel Sol", "address": "Avenida Cipriano Santos, 60", "phone": "+559132261767", "website": "https://hoteleldorado.com.br", "social": "https://www.facebook.com/519069348213956", "category": "hotel", "confidence": 0.82254078101828965 }, "geometry": { "type": "Point", "coordinates": [ -48.465642, -1.4498973 ] } },
{ "type": "Feature", "properties": { "name": "Hotel Spada", "address": "Rua Um, 22", "phone": "+559132577027", "website": "http://www.hotelspada.com", "social": "https://www.facebook.com/481850531873940", "category": "hotel", "confidence": 0.82254078101828965 }, "geometry": { "type": "Point", "coordinates": [ -48.477263, -1.39725 ] } },
{ "type": "Feature", "properties": { "name": "Hotel Tajá", "address": "Rua Deodoro de Mendonça, 497", "phone": "+559132263532", "website": "http://www.hoteltaja.com.br", "social": "https://www.facebook.com/244317659001620", "category": "hotel", "confidence": 0.82254078101828965 }, "geometry": { "type": "Point", "coordinates": [ -48.4661837, -1.4498818 ] } },
{ "type": "Feature", "properties": { "name": "Hotel Trans-Brasil", "address": "Avenida Cipriano Santos, 243", "phone": "+559132282500", "website": "http://www.hoteltransbrasil.com.br", "social": "https://www.facebook.com/135420846808539", "category": "hotel", "confidence": 0.82254078101828965 }, "geometry": { "type": "Point", "coordinates": [ -48.4640021, -1.4492276 ] } },
{ "type": "Feature", "properties": { "name": "Hotel Unidos", "address": "Rua Ó de Almeida, 545", "phone": "+559132521411", "website": "http://www.hotelunidos.com.br", "social": "https://www.facebook.com/161886030538994", "category": "hotel", "confidence": 0.63308457711442789 }, "geometry": { "type": "Point", "coordinates": [ -48.496295, -1.450484 ] } },
{ "type": "Feature", "properties": { "name": "Hotel Val de Cans", "address": "Rua Viracopos, 13", "phone": "+559132570531", "website": "http://www.hotelvaldecans.com.br", "social": "https://www.facebook.com/115878367000713", "category": "hotel", "confidence": 0.63308457711442789 }, "geometry": { "type": "Point", "coordinates": [ -48.474877, -1.399985 ] } },
{ "type": "Feature", "properties": { "name": "Hotel Vila Rica Belém", "address": "Avenida Júlio César, 1777", "phone": "+559183509517", "website": "http://www.hotelvilarica.com.br/", "social": "https://www.facebook.com/1047935048674135", "category": "hotel", "confidence": 0.82254078101828965 }, "geometry": { "type": "Point", "coordinates": [ -48.4713578, -1.4025479 ] } },
{ "type": "Feature", "properties": { "name": "Hotel amazônia belém", "address": "travessa frutuoso guimarães", "phone": null, "website": null, "social": "https://www.facebook.com/109960557236747", "category": "hotel", "confidence": 0.63308457711442789 }, "geometry": { "type": "Point", "coordinates": [ -48.49991, -1.45195 ] } },
{ "type": "Feature", "properties": { "name": "Hotel de Transito do Exercito", "address": "Avenida 16 de Novembro, 300", "phone": "+559132120428", "website": null, "social": "https://www.facebook.com/110957195656214", "category": "hotel", "confidence": 0.82254078101828965 }, "geometry": { "type": "Point", "coordinates": [ -48.499825, -1.458524 ] } },
{ "type": "Feature", "properties": { "name": "Hotel de Trânsito de ST/Sgt do Exército - HTS", "address": "Rua Duque de Caxias, 104", "phone": "+559132433483", "website": null, "social": "https://www.facebook.com/1930969137212640", "category": "hotel", "confidence": 0.63308457711442789 }, "geometry": { "type": "Point", "coordinates": [ -48.44511, -1.31843 ] } },
{ "type": "Feature", "properties": { "name": "Hotel de Trânsito dos Oficiais da Aeronautica", "address": "Rod. Artur Bernardes, s/n", "phone": "+559131829409", "website": null, "social": "https://www.facebook.com/162946114649102", "category": "hotel", "confidence": 0.63308457711442789 }, "geometry": { "type": "Point", "coordinates": [ -48.484372, -1.3938439 ] } },
{ "type": "Feature", "properties": { "name": "Hotel dos Reis", "address": "Travessa Jutai, 147", "phone": "+559133519375", "website": null, "social": "https://www.facebook.com/110958673702818", "category": "hotel", "confidence": 0.82254078101828965 }, "geometry": { "type": "Point", "coordinates": [ -48.4676071, -1.446998 ] } },
{ "type": "Feature", "properties": { "name": "Hotel e Hostel Amazônia", "address": "Rua Ó de Almeida, 548", "phone": "+559131197558", "website": "http://hotelamazoniabelem.com.br", "social": "https://www.facebook.com/297814720336352", "category": "hotel", "confidence": 0.82254078101828965 }, "geometry": { "type": "Point", "coordinates": [ -48.4959451, -1.450538 ] } },
{ "type": "Feature", "properties": { "name": "Hotel e Restaurante Ilha bela", "address": "Rua Principal, Próximo A Cairu", "phone": "+5591992427894", "website": null, "social": "https://www.facebook.com/764392883695659", "category": "hotel", "confidence": 0.82254078101828965 }, "geometry": { "type": "Point", "coordinates": [ -48.4580475, -1.1360244 ] } },
{ "type": "Feature", "properties": { "name": "Iate Borari", "address": "Avenida Bernardo Sayão, 4804", "phone": "+559121220232", "website": "http://www.hotelgoldmartan.com.br", "social": "https://www.facebook.com/589070741505088", "category": "hotel", "confidence": 0.82254078101828965 }, "geometry": { "type": "Point", "coordinates": [ -48.46449, -1.47576 ] } },
{ "type": "Feature", "properties": { "name": "Ibis Styles Belém Nazaré", "address": "Avenida Nazaré, 569", "phone": "+559133217177", "website": "https://www.accorhotels.com/pt-br/hotel-b1z9-ibis-styles-belem-nazare-/index.shtml#origin=accorhotels", "social": "https://www.facebook.com/143824215692558", "category": "hotel", "confidence": 0.95918437963420666 }, "geometry": { "type": "Point", "coordinates": [ -48.48768, -1.45227 ] } },
{ "type": "Feature", "properties": { "name": "Ilha Do Cutijuba", "address": null, "phone": null, "website": null, "social": "https://www.facebook.com/661445873868257", "category": "hostel", "confidence": 0.63308457711442789 }, "geometry": { "type": "Point", "coordinates": [ -48.5603402, -1.2638925 ] } },
{ "type": "Feature", "properties": { "name": "Irituia City-PA", "address": "Centro", "phone": "+559187114209", "website": "http://hotmail.com/", "social": "https://www.facebook.com/1415836421985123", "category": "hotel", "confidence": 0.63308457711442789 }, "geometry": { "type": "Point", "coordinates": [ -48.4757516, -1.4676734 ] } },
{ "type": "Feature", "properties": { "name": "Itaoca Belém Hotel", "address": "Avenida Presidente Vargas, 132", "phone": "+559140092400", "website": "http://www.hotelitaoca.com.br", "social": "https://www.facebook.com/167435599981168", "category": "hotel", "confidence": 0.63308457711442789 }, "geometry": { "type": "Point", "coordinates": [ -48.4983234, -1.448903 ] } },
{ "type": "Feature", "properties": { "name": "LORD HOTEL", "address": "Rua Padre Raimundo Severino de Matos Quadra: 42  Lote:03", "phone": "+5591991405006", "website": null, "social": "https://www.facebook.com/2029797427289575", "category": "hotel", "confidence": 0.82254078101828965 }, "geometry": { "type": "Point", "coordinates": [ -48.686348, -1.528144 ] } },
{ "type": "Feature", "properties": { "name": "Latino Paraense - Hostel e Pousada", "address": "Praia da Flexeira - Cotijuba", "phone": "+5591980873873", "website": null, "social": "https://www.facebook.com/410260552794175", "category": "hostel", "confidence": 0.82254078101828965 }, "geometry": { "type": "Point", "coordinates": [ -48.50288, -1.45434 ] } },
{ "type": "Feature", "properties": { "name": "Litoral Palace Hotel", "address": "Avenida Cipriano Santos, 64", "phone": "+559132281730", "website": null, "social": "https://www.facebook.com/184658285515638", "category": "hotel", "confidence": 0.63308457711442789 }, "geometry": { "type": "Point", "coordinates": [ -48.4655861, -1.4498121 ] } },
{ "type": "Feature", "properties": { "name": "Machado's Plaza Hotel", "address": "Rua Henrique Gurjão, 200", "phone": "+559140089800", "website": "http://www.machadosplazahotel.com.br/", "social": "https://www.facebook.com/125044214353351", "category": "hotel", "confidence": 0.82254078101828965 }, "geometry": { "type": "Point", "coordinates": [ -48.4919721, -1.4506314 ] } },
{ "type": "Feature", "properties": { "name": "Mercure Belém Boulevard", "address": "Travessa Dom Romualdo de Seixas, 1560", "phone": "+559133667575", "website": "https://www.accorhotels.com/pt-br/hotel-b203-mercure-belem-/index.shtml", "social": "https://www.facebook.com/273070909434840", "category": "hotel", "confidence": 0.95918437963420666 }, "geometry": { "type": "Point", "coordinates": [ -48.48395, -1.44607 ] } },
{ "type": "Feature", "properties": { "name": "Motel Bora Bora", "address": "Alameda Moça Bonita, 21", "phone": "+5591988190000", "website": null, "social": "https://www.facebook.com/102133792385943", "category": "hotel", "confidence": 0.63308457711442789 }, "geometry": { "type": "Point", "coordinates": [ -48.42525, -1.40275 ] } },
{ "type": "Feature", "properties": { "name": "Motel Mirage", "address": "Rua Professor Nelson Ribeiro, 161", "phone": "+559132333013", "website": "http://www.miragebelem.com.br", "social": "https://www.facebook.com/444115523082761", "category": "hotel", "confidence": 0.82254078101828965 }, "geometry": { "type": "Point", "coordinates": [ -48.4915849, -1.4311857 ] } },
{ "type": "Feature", "properties": { "name": "Motel Sagitário", "address": "Rodovia Mário Covas, 1226", "phone": "+559132450608", "website": "http://www.motelsagitario.com.br", "social": "https://www.facebook.com/238210269550423", "category": "hotel", "confidence": 0.82254078101828965 }, "geometry": { "type": "Point", "coordinates": [ -48.4141085, -1.374733 ] } },
{ "type": "Feature", "properties": { "name": "Motel Secreto", "address": "Avenida Perimetral, 2242", "phone": "+559133555484", "website": "https://www.motelsecreto.com.br/o-motel", "social": "https://www.facebook.com/228630077816755", "category": "hotel", "confidence": 0.82254078101828965 }, "geometry": { "type": "Point", "coordinates": [ -48.44751, -1.44303 ] } },
{ "type": "Feature", "properties": { "name": "New Inn Hotel", "address": "Avenida Gentil Bittencourt, 85", "phone": null, "website": "http://www.qualitylav.com.br/", "social": "https://www.facebook.com/621335378332212", "category": "hotel", "confidence": 0.82254078101828965 }, "geometry": { "type": "Point", "coordinates": [ -48.4915721, -1.4572747 ] } },
{ "type": "Feature", "properties": { "name": "No Quintal Restaurante e Pousada", "address": "Avenida Benedito Pinheiro, Caripi", "phone": null, "website": null, "social": "https://www.facebook.com/101392935866738", "category": "hotel", "confidence": 0.63308457711442789 }, "geometry": { "type": "Point", "coordinates": [ -48.7024388, -1.4895096 ] } },
{ "type": "Feature", "properties": { "name": "Novo Hotel Vitória", "address": "Rua Belém", "phone": "+5591985013263", "website": null, "social": "https://www.facebook.com/111761280694668", "category": "hotel", "confidence": 0.82254078101828965 }, "geometry": { "type": "Point", "coordinates": [ -48.560043, -1.2670559 ] } },
{ "type": "Feature", "properties": { "name": "Olaria River Hostel", "address": "Olaria river hostel, ilha do Combu", "phone": "+5591984336086", "website": null, "social": "https://www.facebook.com/104681014236892", "category": "hostel", "confidence": 0.82254078101828965 }, "geometry": { "type": "Point", "coordinates": [ -48.4645957, -1.4899508 ] } },
{ "type": "Feature", "properties": { "name": "Orom Motel", "address": "Passagem Bom Sossego, 221", "phone": "+559132238375", "website": "https://instagram.com/orommotel?igshid=1p7v498d6d1mk", "social": "https://www.facebook.com/102941038350655", "category": "hotel", "confidence": 0.82254078101828965 }, "geometry": { "type": "Point", "coordinates": [ -48.4774054, -1.4191364 ] } },
{ "type": "Feature", "properties": { "name": "Panorama Hotel", "address": "Travessa Primeira de Queluz, 81", "phone": "+559132260400", "website": "http://panoramahotel-pa.com.br", "social": "https://www.facebook.com/158608307537253", "category": "hotel", "confidence": 0.82254078101828965 }, "geometry": { "type": "Point", "coordinates": [ -48.4651573, -1.4490133 ] } },
{ "type": "Feature", "properties": { "name": "Pedagogia Criativa", "address": null, "phone": "+5591984211248", "website": null, "social": "https://www.facebook.com/1153435051384381", "category": "hotel", "confidence": 0.63308457711442789 }, "geometry": { "type": "Point", "coordinates": [ -48.4231, -1.34039 ] } },
{ "type": "Feature", "properties": { "name": "Porto Plaza Pousada", "address": null, "phone": null, "website": null, "social": "https://www.facebook.com/101631101420713", "category": "hotel", "confidence": 0.63308457711442789 }, "geometry": { "type": "Point", "coordinates": [ -48.7006572, -1.5203188 ] } },
{ "type": "Feature", "properties": { "name": "Pousada Acaso", "address": "Travessa São Roque, 100", "phone": "+5533484309", "website": null, "social": "https://www.facebook.com/1138961236218583", "category": "hotel", "confidence": 0.82254078101828965 }, "geometry": { "type": "Point", "coordinates": [ -48.4892237, -1.3005054 ] } },
{ "type": "Feature", "properties": { "name": "Pousada Acrópole", "address": "Travessa Bom Jardim, 350", "phone": "+559130833674", "website": null, "social": "https://www.facebook.com/1697774313810023", "category": "hotel", "confidence": 0.82254078101828965 }, "geometry": { "type": "Point", "coordinates": [ -48.499845, -1.463541 ] } },
{ "type": "Feature", "properties": { "name": "Pousada Beach House", "address": "Rua da Castanheira, 10", "phone": "+5591988852870", "website": null, "social": "https://www.facebook.com/252382458571858", "category": "hotel", "confidence": 0.82254078101828965 }, "geometry": { "type": "Point", "coordinates": [ -48.382638, -1.067913 ] } },
{ "type": "Feature", "properties": { "name": "Pousada Beira-Mar", "address": "Praia Do Chapéu Virado", "phone": "+559137711998", "website": null, "social": "https://www.facebook.com/148637692242009", "category": "hotel", "confidence": 0.63308457711442789 }, "geometry": { "type": "Point", "coordinates": [ -48.4738147, -1.1625813 ] } },
{ "type": "Feature", "properties": { "name": "Pousada Castelo", "address": "Travessa Francisco Caldeira Castelo Branco, 2339", "phone": "+559133446400", "website": "http://pousadacastelo.com", "social": "https://www.facebook.com/704369119652068", "category": "hotel", "confidence": 0.82254078101828965 }, "geometry": { "type": "Point", "coordinates": [ -48.4697114, -1.4639359 ] } },
{ "type": "Feature", "properties": { "name": "Pousada Centauros", "address": "Avenida Pedro Álvares Cabral, 835", "phone": "+559132048000", "website": "http://www.pousadacentauros.com.br", "social": "https://www.facebook.com/148577125203500", "category": "hotel", "confidence": 0.82254078101828965 }, "geometry": { "type": "Point", "coordinates": [ -48.4919917, -1.4372309 ] } },
{ "type": "Feature", "properties": { "name": "Pousada Chão de Estrela", "address": "Rua Eurico Romariz, 202", "phone": "+5591980191989", "website": null, "social": "https://www.facebook.com/1707010852875681", "category": "hotel", "confidence": 0.63308457711442789 }, "geometry": { "type": "Point", "coordinates": [ -48.4557127, -1.1337357 ] } },
{ "type": "Feature", "properties": { "name": "Pousada DA DIDI", "address": "Travessa 14 de Marco, 677", "phone": "+5591982391868", "website": "http://pousadadadidi.com/", "social": "https://www.facebook.com/821414637991956", "category": "hotel", "confidence": 0.82254078101828965 }, "geometry": { "type": "Point", "coordinates": [ -48.4805417, -1.441546 ] } },
{ "type": "Feature", "properties": { "name": "Pousada Dos Tucanos Em Mosqueiro Beach", "address": "Praia Do Marahu", "phone": null, "website": null, "social": "https://www.facebook.com/689739614496806", "category": "hotel", "confidence": 0.63308457711442789 }, "geometry": { "type": "Point", "coordinates": [ -48.4001984, -1.0734851 ] } },
{ "type": "Feature", "properties": { "name": "Pousada Farol", "address": "Avenida Beira-Mar, 3644", "phone": "+5537712593", "website": "http://pousadafarolmosqueiro.webnode.com.br", "social": "https://www.facebook.com/289995067695253", "category": "hotel", "confidence": 0.63308457711442789 }, "geometry": { "type": "Point", "coordinates": [ -48.46919, -1.2574921 ] } },
{ "type": "Feature", "properties": { "name": "Pousada Hanayra", "address": null, "phone": "+5591991882005", "website": null, "social": "https://www.facebook.com/531903536872754", "category": "hotel", "confidence": 0.63308457711442789 }, "geometry": { "type": "Point", "coordinates": [ -48.5, -1.45 ] } },
{ "type": "Feature", "properties": { "name": "Pousada I Love Timbó", "address": "Travessa Timbó, 3550", "phone": "+5591985885508", "website": "http://www.linktr.ee/pousadailovetimbo", "social": "https://www.facebook.com/100732515044373", "category": "bed_and_breakfast", "confidence": 0.82254078101828965 }, "geometry": { "type": "Point", "coordinates": [ -48.4572592, -1.4413889 ] } },
{ "type": "Feature", "properties": { "name": "Pousada Lene", "address": "Estr. do Marahu, 233 - Marahú, Belém - PA", "phone": "+5591981235090", "website": null, "social": "https://www.facebook.com/766211160251252", "category": "hotel", "confidence": 0.82254078101828965 }, "geometry": { "type": "Point", "coordinates": [ -48.3993407, -1.0730389 ] } },
{ "type": "Feature", "properties": { "name": "Pousada Love Lomas", "address": "Travessa Lomas Valentinas, 2846", "phone": "+559132763583", "website": null, "social": "https://www.facebook.com/1555961677804391", "category": "hotel", "confidence": 0.82254078101828965 }, "geometry": { "type": "Point", "coordinates": [ -48.45258, -1.436018 ] } },
{ "type": "Feature", "properties": { "name": "Pousada Marauê", "address": "Estrada do Caruara, conhecida com estrada do Paraiso, 2000", "phone": "+559136182032", "website": "http://www.pousadamaraue.blogspot.com", "social": "https://www.facebook.com/208067622550310", "category": "bed_and_breakfast", "confidence": 0.82254078101828965 }, "geometry": { "type": "Point", "coordinates": [ -48.3930274, -1.0688603 ] } },
{ "type": "Feature", "properties": { "name": "Pousada Matapi - Cotijuba/PA", "address": null, "phone": "+559136171172", "website": null, "social": "https://www.facebook.com/308294866011307", "category": "hotel", "confidence": 0.63308457711442789 }, "geometry": { "type": "Point", "coordinates": [ -48.561415, -1.266064 ] } },
{ "type": "Feature", "properties": { "name": "Pousada Olimpo", "address": "Rodovia Mário Covas, 200", "phone": "+5591989758872", "website": "http://pousadaolimpo.com", "social": "https://www.facebook.com/101156247975749", "category": "hotel", "confidence": 0.63308457711442789 }, "geometry": { "type": "Point", "coordinates": [ -48.445159, -1.344791 ] } },
{ "type": "Feature", "properties": { "name": "Pousada Olimpo", "address": "Rodovia Mário Covas, 200", "phone": "+559189758872", "website": "http://pousadaolimpo.com", "social": "https://www.facebook.com/186699371529758", "category": "hotel", "confidence": 0.63308457711442789 }, "geometry": { "type": "Point", "coordinates": [ -48.416925, -1.373261 ] } },
{ "type": "Feature", "properties": { "name": "Pousada Ponte Da Ilha", "address": "Praia Vai Quem Quê", "phone": null, "website": null, "social": "https://www.facebook.com/562225624111416", "category": "hotel", "confidence": 0.63308457711442789 }, "geometry": { "type": "Point", "coordinates": [ -48.5500853, -1.2209021 ] } },
{ "type": "Feature", "properties": { "name": "Pousada Por Do Sol Marudá", "address": "Rua da caixa d' agua, numero da casa:95", "phone": "+55988460135", "website": null, "social": "https://www.facebook.com/261011100975038", "category": "hotel", "confidence": 0.63308457711442789 }, "geometry": { "type": "Point", "coordinates": [ -48.489148, -1.4260949 ] } },
{ "type": "Feature", "properties": { "name": "Pousada Porto Arthur", "address": "Praia Porto Arthur, S/N", "phone": "+19137411396", "website": null, "social": "https://www.facebook.com/1288656421148785", "category": "hotel", "confidence": 0.63308457711442789 }, "geometry": { "type": "Point", "coordinates": [ -48.448581, -1.12608 ] } },
{ "type": "Feature", "properties": { "name": "Pousada Portuguesa", "address": "Passagem Américo Pedroso, 17", "phone": "+559132411392", "website": null, "social": "https://www.facebook.com/287124108597910", "category": "hotel", "confidence": 0.63308457711442789 }, "geometry": { "type": "Point", "coordinates": [ -48.48187, -1.45932 ] } },
{ "type": "Feature", "properties": { "name": "Pousada QuartoCrescente Cotijuba", "address": "Rua Magalhães Barata, 72", "phone": "+5591991272792", "website": null, "social": "https://www.facebook.com/235300306806036", "category": "hotel", "confidence": 0.82254078101828965 }, "geometry": { "type": "Point", "coordinates": [ -48.5514743, -1.2214539 ] } },
{ "type": "Feature", "properties": { "name": "Pousada Recanto da Ilha", "address": "Rua Jardim Maués, 74", "phone": "+551338521198", "website": "http://www.pousadarecantodailha.blogspot.com", "social": "https://www.facebook.com/563596230394554", "category": "bed_and_breakfast", "confidence": 0.82254078101828965 }, "geometry": { "type": "Point", "coordinates": [ -48.43225, -1.124029 ] } },
{ "type": "Feature", "properties": { "name": "Pousada Retiro Amazônico", "address": null, "phone": "+5591984252206", "website": null, "social": "https://www.facebook.com/718767134826925", "category": "bed_and_breakfast", "confidence": 0.63308457711442789 }, "geometry": { "type": "Point", "coordinates": [ -48.4360964, -1.3514509 ] } },
{ "type": "Feature", "properties": { "name": "Pousada Rios", "address": "Ilha de Cotijuba, Rio de Farol, 190", "phone": "+5591984685535", "website": null, "social": "https://www.facebook.com/365240430322836", "category": "bed_and_breakfast", "confidence": 0.82254078101828965 }, "geometry": { "type": "Point", "coordinates": [ -48.5626602, -1.2667577 ] } },
{ "type": "Feature", "properties": { "name": "Pousada Senador", "address": "Avenida Beira-Mar, 640", "phone": "+5591981218991", "website": "http://www.pousadasenador.com", "social": "https://www.facebook.com/2119348394949035", "category": "bed_and_breakfast", "confidence": 0.82254078101828965 }, "geometry": { "type": "Point", "coordinates": [ -48.4418128, -1.1210098 ] } },
{ "type": "Feature", "properties": { "name": "Pousada Swing", "address": "Passagem José de Alencar, 8", "phone": "+559132355307", "website": "http://pousadaswing.com.br/", "social": "https://www.facebook.com/102309851191912", "category": "hotel", "confidence": 0.63308457711442789 }, "geometry": { "type": "Point", "coordinates": [ -48.42509, -1.40187 ] } },
{ "type": "Feature", "properties": { "name": "Pousada Tenoné", "address": "Passagem Sexta Linha", "phone": null, "website": null, "social": "https://www.facebook.com/260112444354187", "category": "hotel", "confidence": 0.63308457711442789 }, "geometry": { "type": "Point", "coordinates": [ -48.4358751, -1.323845 ] } },
{ "type": "Feature", "properties": { "name": "Pousada Vip Boa Ventura", "address": "Rua Boaventura da Silva, 1945", "phone": "+5591984212805", "website": null, "social": "https://www.facebook.com/173562416691983", "category": "hotel", "confidence": 0.82254078101828965 }, "geometry": { "type": "Point", "coordinates": [ -48.47294, -1.44568 ] } },
{ "type": "Feature", "properties": { "name": "Pousada dos Guarás", "address": "Avenida Beira Mar", "phone": "+559140055656", "website": "http://www.pousadadosguaras.com.br/", "social": "https://www.facebook.com/344193782335153", "category": "hotel", "confidence": 0.82254078101828965 }, "geometry": { "type": "Point", "coordinates": [ -48.4781245, -1.4382831 ] } },
{ "type": "Feature", "properties": { "name": "Pousada ponta do Boiador Algodoal Pará", "address": "cj Panorama XXI Qd, 29", "phone": "+19132790060", "website": "http://boiador.com", "social": "https://www.facebook.com/1692206541059844", "category": "hotel", "confidence": 0.63308457711442789 }, "geometry": { "type": "Point", "coordinates": [ -48.44376, -1.389209 ] } },
{ "type": "Feature", "properties": { "name": "Pousada tapejara sol & lua", "address": "R. Magalhães Barata, 1310 vai quem quer ilha de cotijuba", "phone": "+5591999854132", "website": null, "social": "https://www.facebook.com/1765272613716520", "category": "hotel", "confidence": 0.82254078101828965 }, "geometry": { "type": "Point", "coordinates": [ -48.50288, -1.45435 ] } },
{ "type": "Feature", "properties": { "name": "Privilege Motel", "address": "Rodovia Mário Covas, 1167", "phone": null, "website": null, "social": "https://www.facebook.com/1147215228738429", "category": "hotel", "confidence": 0.63308457711442789 }, "geometry": { "type": "Point", "coordinates": [ -48.45206, -1.3480399 ] } },
{ "type": "Feature", "properties": { "name": "Radisson Hotel Maiorana Belém", "address": "Av. Comandante Bras de Aguiar 321", "phone": "+559131229160", "website": "https://www.radissonhotelsamericas.com/en-us/hotels/radisson-belem-maiorana?cid=a%3ase+b%3afbk+c%3aamer+i%3alocal+e%3arad+d%3alatam+h%3abrbelem", "social": "https://www.facebook.com/297990697012787", "category": "hotel", "confidence": 0.95918437963420666 }, "geometry": { "type": "Point", "coordinates": [ -48.4891452, -1.4547117 ] } },
{ "type": "Feature", "properties": { "name": "Rancho Odara", "address": "Estrada do Atalaia, PA444", "phone": "+5591985266556", "website": "https://linktr.ee/ranchoodara", "social": "https://www.facebook.com/893111184225848", "category": "hotel", "confidence": 0.82254078101828965 }, "geometry": { "type": "Point", "coordinates": [ -48.4547017, -1.4327907 ] } },
{ "type": "Feature", "properties": { "name": "Refrinorte Alvorada", "address": null, "phone": "+5591983193142", "website": null, "social": "https://www.facebook.com/1778866892402384", "category": "hotel", "confidence": 0.63308457711442789 }, "geometry": { "type": "Point", "coordinates": [ -48.6864402, -1.5168444 ] } },
{ "type": "Feature", "properties": { "name": "Reserva Amazon Forest Hotel", "address": "Travessa We Doze, 1000", "phone": "+5591993140101", "website": "http://www.reservamazon.com.br", "social": "https://www.facebook.com/196966323806355", "category": "hotel", "confidence": 0.82254078101828965 }, "geometry": { "type": "Point", "coordinates": [ -48.4383633, -1.3370301 ] } },
{ "type": "Feature", "properties": { "name": "Resort Vila Cotijuba", "address": null, "phone": "+559136171395", "website": null, "social": "https://www.facebook.com/1550524755238396", "category": "hotel", "confidence": 0.82254078101828965 }, "geometry": { "type": "Point", "coordinates": [ -48.5600591, -1.2713906 ] } },
{ "type": "Feature", "properties": { "name": "Restaurante Samauma Park Hotel", "address": null, "phone": null, "website": null, "social": "https://www.facebook.com/554281411289830", "category": "hotel", "confidence": 0.63308457711442789 }, "geometry": { "type": "Point", "coordinates": [ -48.7080879, -1.4929405 ] } },
{ "type": "Feature", "properties": { "name": "Rodo Hotel", "address": "Travessa Nina Ribeiro, 111", "phone": "+559132464749", "website": null, "social": "https://www.facebook.com/142681735804154", "category": "hotel", "confidence": 0.63308457711442789 }, "geometry": { "type": "Point", "coordinates": [ -48.4645733, -1.4493104 ] } },
{ "type": "Feature", "properties": { "name": "Sagres Hotel", "address": null, "phone": "+559140050005", "website": "http://www.hotelsagres.com/thehotel.php", "social": "https://www.facebook.com/114128758661610", "category": "hotel", "confidence": 0.63308457711442789 }, "geometry": { "type": "Point", "coordinates": [ -48.4679599, -1.4480473 ] } },
{ "type": "Feature", "properties": { "name": "Salinas Hotel Prive do Atalaia", "address": "Estrada do Atalaia, 10 - Paraia do Atalaia", "phone": "+559134641244", "website": "http://www.privedoatalaia.com/home", "social": "https://www.facebook.com/311241645602003", "category": "hotel", "confidence": 0.63308457711442789 }, "geometry": { "type": "Point", "coordinates": [ -48.4669, -1.44789 ] } },
{ "type": "Feature", "properties": { "name": "Samauma Park Hotel", "address": null, "phone": "+19133228000", "website": "http://www.samaumaparkhotel.com.br", "social": "https://www.facebook.com/262068007468281", "category": "hotel", "confidence": 0.82254078101828965 }, "geometry": { "type": "Point", "coordinates": [ -48.708009, -1.493431 ] } },
{ "type": "Feature", "properties": { "name": "Samaúma Hotel e Restaurante", "address": null, "phone": null, "website": null, "social": "https://www.facebook.com/196878530432920", "category": "hotel", "confidence": 0.63308457711442789 }, "geometry": { "type": "Point", "coordinates": [ -48.708167, -1.4930599 ] } },
{ "type": "Feature", "properties": { "name": "Senador Pousada Hotel", "address": "Rua Senador Manoel Barata, 1241", "phone": "+559132425193", "website": "http://www.senadorpousadahotel.com", "social": "https://www.facebook.com/1448850482023307", "category": "hotel", "confidence": 0.63308457711442789 }, "geometry": { "type": "Point", "coordinates": [ -48.494245, -1.448056 ] } },
{ "type": "Feature", "properties": { "name": "Sete Sete Hotel", "address": "Trav Primeiro de Março", "phone": "+559132227730", "website": null, "social": "https://www.facebook.com/672360139613320", "category": "hotel", "confidence": 0.63308457711442789 }, "geometry": { "type": "Point", "coordinates": [ -48.47256, -1.46777 ] } },
{ "type": "Feature", "properties": { "name": "Stada Hotels", "address": "Avenida Duque de Caxias, 1538", "phone": null, "website": "http://www.stadahotels.com.br", "social": "https://www.facebook.com/1889796724614802", "category": "hotel", "confidence": 0.82254078101828965 }, "geometry": { "type": "Point", "coordinates": [ -48.4579383, -1.4246265 ] } },
{ "type": "Feature", "properties": { "name": "Sítio Hotel  Furacão", "address": "Rod. Augusto Meira Filho - Ariramba, Belém - PA", "phone": "+5591999088925", "website": null, "social": "https://www.facebook.com/1387155478085334", "category": "hotel", "confidence": 0.82254078101828965 }, "geometry": { "type": "Point", "coordinates": [ -48.40121, -1.10311 ] } },
{ "type": "Feature", "properties": { "name": "Veras Apart Hotel", "address": "Rua Senador Manoel Barata, 1357", "phone": "+559132250721", "website": null, "social": "https://www.facebook.com/552224174835743", "category": "hotel", "confidence": 0.63308457711442789 }, "geometry": { "type": "Point", "coordinates": [ -48.4935445, -1.4474307 ] } },
{ "type": "Feature", "properties": { "name": "Vila de Americano", "address": " ", "phone": "+556232120696", "website": null, "social": "https://www.facebook.com/1742049969370723", "category": "hotel", "confidence": 0.63308457711442789 }, "geometry": { "type": "Point", "coordinates": [ -48.052889, -1.306243 ] } },
{ "type": "Feature", "properties": { "name": "Villa do Sol Pousada", "address": "Rua Bernadino Mundurucu, Q-363 N°21 - Vila dos Cabanos", "phone": null, "website": null, "social": "https://www.facebook.com/174841456253080", "category": "hotel", "confidence": 0.63308457711442789 }, "geometry": { "type": "Point", "coordinates": [ -48.6829305, -1.5164969 ] } },
{ "type": "Feature", "properties": { "name": "ZAIA Part Hotel", "address": "Rua Nova, 57", "phone": "+5591992660506", "website": "http://www.zaiaaparthotel.com.br/", "social": "https://www.facebook.com/184895582044326", "category": "hotel", "confidence": 0.82254078101828965 }, "geometry": { "type": "Point", "coordinates": [ -48.4135485, -1.38735 ] } },
{ "type": "Feature", "properties": { "name": "Zoghbi All Suites Hotel", "address": "Rua Ferreira Cantão, 100", "phone": "+559132303555", "website": "http://www.zoghbi.com.br", "social": "https://www.facebook.com/352248631533163", "category": "hotel", "confidence": 0.63308457711442789 }, "geometry": { "type": "Point", "coordinates": [ -48.4955153, -1.4539284 ] } },
{ "type": "Feature", "properties": { "name": "casa_docelso", "address": "Ilha das Onças | Rio Furo Grande", "phone": "+5591991271276", "website": "http://casadocelso.com.br", "social": "https://www.facebook.com/113578046872824", "category": "hotel", "confidence": 0.63308457711442789 }, "geometry": { "type": "Point", "coordinates": [ -48.4854809, -1.400847 ] } },
{ "type": "Feature", "properties": { "name": "ibis budget Belém", "address": "Avenida José Bonifácio, 244", "phone": "+19132027600", "website": "https://all.accor.com/hotel/5624/index.pt-br.shtml?y_source=1_mtuznja0njytndqwlwxvy2f0aw9ulndlynnpdgu=", "social": "https://www.facebook.com/155840317887406", "category": "hotel", "confidence": 0.95918437963420666 }, "geometry": { "type": "Point", "coordinates": [ -48.4694, -1.44893 ] } },
{ "type": "Feature", "properties": { "name": "Ôvibe Hostel & Arts", "address": "Travessa Benjamin Constant, 1374", "phone": "+559133490008", "website": "http://www.ovibe.com.br", "social": "https://www.facebook.com/1716757148629196", "category": "hostel", "confidence": 0.82254078101828965 }, "geometry": { "type": "Point", "coordinates": [ -48.4887282, -1.4540371 ] } }
]
}
